{
"type": "FeatureCollection",
"name": "stations",
"crs": { "type": "name", "properties": { "name": "urn:ogc:def:crs:OGC:1.3:CRS84" } },
"features": [
{ "type": "Feature", "properties": { "id": 1, "nom": "Station Service Shell Carrefour Duncan", "operateur": "Vivo Energy Côte d'Ivoire SA", "shop": false, "adresse": "Aghien;Cocody;Abidjan;Côte d'Ivoire", "ville_id": 1, "created_at": "2025-03-26T21:20:08.579" }, "geometry": { "type": "Point", "coordinates": [ -3.9974514, 5.378262 ] } },
{ "type": "Feature", "properties": { "id": 2, "nom": "Station Service Pétro Ivoire", "operateur": "Pétro Ivoire SA", "shop": false, "adresse": "Vieux Cocody;Cocody;Abidjan;Côte d'Ivoire", "ville_id": 1, "created_at": "2025-03-26T21:20:08.579" }, "geometry": { "type": "Point", "coordinates": [ -4.0017072, 5.352525 ] } },
{ "type": "Feature", "properties": { "id": 3, "nom": "Station Service Pétro Ivoire Angré", "operateur": "Pétro Ivoire SA", "shop": false, "adresse": "Angré;Cocody;Abidjan;Côte d'Ivoire", "ville_id": 1, "created_at": "2025-03-26T21:20:08.579" }, "geometry": { "type": "Point", "coordinates": [ -3.9909528, 5.404871 ] } },
{ "type": "Feature", "properties": { "id": 4, "nom": "Station Service Shell Angré", "operateur": "Vivo Energy Côte d'Ivoire SA", "shop": false, "adresse": null, "ville_id": 1, "created_at": "2025-03-26T21:20:08.579" }, "geometry": { "type": "Point", "coordinates": [ -3.990483, 5.4047311 ] } },
{ "type": "Feature", "properties": { "id": 5, "nom": "Corlay Riviera 3", "operateur": "Corlay Côte d'Ivoire SA", "shop": false, "adresse": "Riviera 3;Cocody;Abidjan;Côte d'Ivoire", "ville_id": 1, "created_at": "2025-03-26T21:20:08.579" }, "geometry": { "type": "Point", "coordinates": [ -3.9599233, 5.3549235 ] } },
{ "type": "Feature", "properties": { "id": 6, "nom": "Station Service Total", "operateur": "Total Côte d'Ivoire SA", "shop": false, "adresse": "Bonoumin;Cocody;Abidjan;Côte d'Ivoire", "ville_id": 1, "created_at": "2025-03-26T21:20:08.579" }, "geometry": { "type": "Point", "coordinates": [ -3.9658874, 5.3576657 ] } },
{ "type": "Feature", "properties": { "id": 7, "nom": "Station Service Oilibya Riviéra-Palmeraie", "operateur": "Libya Oil Côte d’Ivoire SA", "shop": false, "adresse": null, "ville_id": 1, "created_at": "2025-03-26T21:20:08.579" }, "geometry": { "type": "Point", "coordinates": [ -3.9598221, 5.3628568 ] } },
{ "type": "Feature", "properties": { "id": 8, "nom": "Station Service Total Sitarail", "operateur": "Total Côte d'Ivoire SA", "shop": false, "adresse": null, "ville_id": 1, "created_at": "2025-03-26T21:20:08.579" }, "geometry": { "type": "Point", "coordinates": [ -4.0138028, 5.3011947 ] } },
{ "type": "Feature", "properties": { "id": 9, "nom": "Station Service Oilibya Boulevard Valéry Giscard d’Estaing", "operateur": "Libya Oil Côte d’Ivoire SA", "shop": false, "adresse": null, "ville_id": 1, "created_at": "2025-03-26T21:20:08.579" }, "geometry": { "type": "Point", "coordinates": [ -3.9627005, 5.2712409 ] } },
{ "type": "Feature", "properties": { "id": 10, "nom": "Station Service Pétroci 7e Tranche", "operateur": "Société Nationale d'Opérations Pétrolières de Côte d'Ivoire (PETROCI)", "shop": false, "adresse": "Deux Plateaux;Cocody;Abidjan;Côte d'Ivoire", "ville_id": 1, "created_at": "2025-03-26T21:20:08.579" }, "geometry": { "type": "Point", "coordinates": [ -3.9879719, 5.3786212 ] } },
{ "type": "Feature", "properties": { "id": 11, "nom": "Total", "operateur": "Total Côte d'Ivoire SA", "shop": false, "adresse": "Deux Plateaux;Cocody;Abidjan;Côte d'Ivoire", "ville_id": 1, "created_at": "2025-03-26T21:20:08.579" }, "geometry": { "type": "Point", "coordinates": [ -3.9894808, 5.3613989 ] } },
{ "type": "Feature", "properties": { "id": 12, "nom": "Total Sococé", "operateur": "Total Côte d'Ivoire SA", "shop": false, "adresse": "Gendarmerie Agban;Cocody;Abidjan;Côte d'Ivoire", "ville_id": 1, "created_at": "2025-03-26T21:20:08.579" }, "geometry": { "type": "Point", "coordinates": [ -3.9997589, 5.371933 ] } },
{ "type": "Feature", "properties": { "id": 13, "nom": "Station Shell Boulevard Nanan Yamousso", "operateur": "Vivo Energy Côte d'Ivoire SA", "shop": false, "adresse": null, "ville_id": 1, "created_at": "2025-03-26T21:20:08.579" }, "geometry": { "type": "Point", "coordinates": [ -4.0055809, 5.3092527 ] } },
{ "type": "Feature", "properties": { "id": 14, "nom": "Station Service Shell", "operateur": "Vivo Energy Côte d'Ivoire SA", "shop": false, "adresse": "Deux Plateaux;Cocody;Abidjan;Côte d'Ivoire", "ville_id": 1, "created_at": "2025-03-26T21:20:08.579" }, "geometry": { "type": "Point", "coordinates": [ -3.9876891, 5.384996 ] } },
{ "type": "Feature", "properties": { "id": 15, "nom": "Station Service Corlay", "operateur": "Corlay Côte d'Ivoire SA", "shop": false, "adresse": null, "ville_id": 1, "created_at": "2025-03-26T21:20:08.579" }, "geometry": { "type": "Point", "coordinates": [ -3.9690914, 5.2893861 ] } },
{ "type": "Feature", "properties": { "id": 16, "nom": "Station Service Shell", "operateur": "Vivo Energy Côte d'Ivoire SA", "shop": false, "adresse": null, "ville_id": 1, "created_at": "2025-03-26T21:20:08.579" }, "geometry": { "type": "Point", "coordinates": [ -3.9849263, 5.3082492 ] } },
{ "type": "Feature", "properties": { "id": 17, "nom": "Station Service Shell", "operateur": "Vivo Energy Côte d'Ivoire SA", "shop": false, "adresse": null, "ville_id": 1, "created_at": "2025-03-26T21:20:08.579" }, "geometry": { "type": "Point", "coordinates": [ -3.9844409, 5.3084282 ] } },
{ "type": "Feature", "properties": { "id": 18, "nom": "Total Énergies", "operateur": "Total Côte d'Ivoire SA", "shop": false, "adresse": "Vieux Cocody;Cocody;Abidjan;Côte d'Ivoire", "ville_id": 1, "created_at": "2025-03-26T21:20:08.579" }, "geometry": { "type": "Point", "coordinates": [ -3.9942903, 5.3489902 ] } },
{ "type": "Feature", "properties": { "id": 19, "nom": "Station Service Total Akwaba", "operateur": "Total Côte d'Ivoire SA", "shop": false, "adresse": null, "ville_id": 1, "created_at": "2025-03-26T21:20:08.579" }, "geometry": { "type": "Point", "coordinates": [ -3.9622073, 5.268914 ] } },
{ "type": "Feature", "properties": { "id": 20, "nom": "Station service", "operateur": null, "shop": false, "adresse": null, "ville_id": 1, "created_at": "2025-03-26T21:20:08.579" }, "geometry": { "type": "Point", "coordinates": [ -4.0454266, 5.440022 ] } },
{ "type": "Feature", "properties": { "id": 21, "nom": "Station Service Total", "operateur": "Total Côte d'Ivoire SA", "shop": false, "adresse": null, "ville_id": 1, "created_at": "2025-03-26T21:20:08.579" }, "geometry": { "type": "Point", "coordinates": [ -3.9637728, 5.26013 ] } },
{ "type": "Feature", "properties": { "id": 22, "nom": "Station Service Pétro Ivoire Reine Pokou", "operateur": "Pétro Ivoire SA", "shop": false, "adresse": null, "ville_id": 1, "created_at": "2025-03-26T21:20:08.579" }, "geometry": { "type": "Point", "coordinates": [ -4.0073574, 5.3048942 ] } },
{ "type": "Feature", "properties": { "id": 23, "nom": "Station Service Shell", "operateur": "Vivo Energy Côte d'Ivoire SA", "shop": false, "adresse": null, "ville_id": 1, "created_at": "2025-03-26T21:20:08.579" }, "geometry": { "type": "Point", "coordinates": [ -4.016564, 5.3642515 ] } },
{ "type": "Feature", "properties": { "id": 24, "nom": "Afriquia", "operateur": null, "shop": false, "adresse": null, "ville_id": 1, "created_at": "2025-03-26T21:20:08.579" }, "geometry": { "type": "Point", "coordinates": [ -4.0318385, 5.3498862 ] } },
{ "type": "Feature", "properties": { "id": 25, "nom": null, "operateur": null, "shop": false, "adresse": null, "ville_id": 1, "created_at": "2025-03-26T21:20:08.579" }, "geometry": { "type": "Point", "coordinates": [ -3.9770575, 5.3114105 ] } },
{ "type": "Feature", "properties": { "id": 26, "nom": "Total Zone 4", "operateur": "Total Côte d'Ivoire SA", "shop": false, "adresse": null, "ville_id": 1, "created_at": "2025-03-26T21:20:08.579" }, "geometry": { "type": "Point", "coordinates": [ -3.9822665, 5.2938908 ] } },
{ "type": "Feature", "properties": { "id": 27, "nom": "Shell", "operateur": "Vivo Energy Côte d'Ivoire SA", "shop": false, "adresse": null, "ville_id": 1, "created_at": "2025-03-26T21:20:08.579" }, "geometry": { "type": "Point", "coordinates": [ -4.0621747, 5.3409004 ] } },
{ "type": "Feature", "properties": { "id": 28, "nom": "Afriquia", "operateur": null, "shop": false, "adresse": null, "ville_id": 1, "created_at": "2025-03-26T21:20:08.579" }, "geometry": { "type": "Point", "coordinates": [ -4.0630085, 5.3517568 ] } },
{ "type": "Feature", "properties": { "id": 29, "nom": "Station Service Shell", "operateur": "Vivo Energy Côte d'Ivoire SA", "shop": false, "adresse": null, "ville_id": 1, "created_at": "2025-03-26T21:20:08.579" }, "geometry": { "type": "Point", "coordinates": [ -4.0731638, 5.3399222 ] } },
{ "type": "Feature", "properties": { "id": 30, "nom": "Total Yop Selmer", "operateur": "Total Côte d'Ivoire SA", "shop": false, "adresse": null, "ville_id": 1, "created_at": "2025-03-26T21:20:08.579" }, "geometry": { "type": "Point", "coordinates": [ -4.0640222, 5.3406146 ] } },
{ "type": "Feature", "properties": { "id": 31, "nom": "Total Yop Bel Air", "operateur": "Total Côte d'Ivoire SA", "shop": false, "adresse": null, "ville_id": 1, "created_at": "2025-03-26T21:20:08.579" }, "geometry": { "type": "Point", "coordinates": [ -4.0635814, 5.3482626 ] } },
{ "type": "Feature", "properties": { "id": 32, "nom": "Station Service Corlay", "operateur": "Corlay Côte d'Ivoire SA", "shop": false, "adresse": null, "ville_id": 1, "created_at": "2025-03-26T21:20:08.579" }, "geometry": { "type": "Point", "coordinates": [ -4.0178637, 5.3544055 ] } },
{ "type": "Feature", "properties": { "id": 33, "nom": "TotalEnergies", "operateur": null, "shop": false, "adresse": "Riviéra 2;Cocody;Abidjan;Côte d'Ivoire", "ville_id": 1, "created_at": "2025-03-26T21:20:08.579" }, "geometry": { "type": "Point", "coordinates": [ -3.9787786, 5.3528278 ] } },
{ "type": "Feature", "properties": { "id": 34, "nom": "Station Service Shell", "operateur": "Vivo Energy Côte d'Ivoire SA", "shop": false, "adresse": "Riviéra 1;Cocody;Abidjan;Côte d'Ivoire", "ville_id": 1, "created_at": "2025-03-26T21:20:08.579" }, "geometry": { "type": "Point", "coordinates": [ -3.9762171, 5.3396006 ] } },
{ "type": "Feature", "properties": { "id": 35, "nom": "Pétro Ivoire", "operateur": "Pétro-Ivoire SA", "shop": false, "adresse": null, "ville_id": 1, "created_at": "2025-03-26T21:20:08.579" }, "geometry": { "type": "Point", "coordinates": [ -4.0631462, 5.3463515 ] } },
{ "type": "Feature", "properties": { "id": 36, "nom": "Pétroci", "operateur": "Société Nationale d'Opérations Pétrolières de Côte d'Ivoire (PETROCI)", "shop": false, "adresse": null, "ville_id": 1, "created_at": "2025-03-26T21:20:08.579" }, "geometry": { "type": "Point", "coordinates": [ -4.0731592, 5.3434723 ] } },
{ "type": "Feature", "properties": { "id": 37, "nom": "Shell", "operateur": "Vivo Energy Côte d'Ivoire SA", "shop": false, "adresse": null, "ville_id": 1, "created_at": "2025-03-26T21:20:08.579" }, "geometry": { "type": "Point", "coordinates": [ -4.0739702, 5.3515339 ] } },
{ "type": "Feature", "properties": { "id": 38, "nom": "Corlay Autoroute du Nord", "operateur": "Corlay Côte d'Ivoire SA", "shop": false, "adresse": null, "ville_id": 1, "created_at": "2025-03-26T21:20:08.579" }, "geometry": { "type": "Point", "coordinates": [ -4.0230248, 5.3621813 ] } },
{ "type": "Feature", "properties": { "id": 39, "nom": "Station Service Shell", "operateur": "Vivo Energy Côte d'Ivoire SA", "shop": false, "adresse": null, "ville_id": 1, "created_at": "2025-03-26T21:20:08.579" }, "geometry": { "type": "Point", "coordinates": [ -4.0100769, 5.4213988 ] } },
{ "type": "Feature", "properties": { "id": 40, "nom": "Station Service Total", "operateur": "Total Côte d'Ivoire SA", "shop": false, "adresse": null, "ville_id": 1, "created_at": "2025-03-26T21:20:08.579" }, "geometry": { "type": "Point", "coordinates": [ -4.0134215, 5.4182563 ] } },
{ "type": "Feature", "properties": { "id": 41, "nom": null, "operateur": null, "shop": false, "adresse": null, "ville_id": 1, "created_at": "2025-03-26T21:20:08.579" }, "geometry": { "type": "Point", "coordinates": [ -4.0072592, 5.4151711 ] } },
{ "type": "Feature", "properties": { "id": 42, "nom": "Station Service Shell Dokui", "operateur": "Vivo Energy Côte d'Ivoire SA", "shop": false, "adresse": null, "ville_id": 1, "created_at": "2025-03-26T21:20:08.579" }, "geometry": { "type": "Point", "coordinates": [ -4.0065847, 5.4057437 ] } },
{ "type": "Feature", "properties": { "id": 43, "nom": "Station Service Corlay", "operateur": "Corlay Côte d'Ivoire SA", "shop": false, "adresse": "Angré;Cocody;Abidjan;Côte d'Ivoire", "ville_id": 1, "created_at": "2025-03-26T21:20:08.579" }, "geometry": { "type": "Point", "coordinates": [ -3.9918057, 5.397626 ] } },
{ "type": "Feature", "properties": { "id": 44, "nom": null, "operateur": null, "shop": false, "adresse": null, "ville_id": 1, "created_at": "2025-03-26T21:20:08.579" }, "geometry": { "type": "Point", "coordinates": [ -3.9880979, 5.3039932 ] } },
{ "type": "Feature", "properties": { "id": 45, "nom": "Oilibya", "operateur": "Libya Oil Côte d’Ivoire SA", "shop": false, "adresse": null, "ville_id": 1, "created_at": "2025-03-26T21:20:08.579" }, "geometry": { "type": "Point", "coordinates": [ -3.9546512, 5.2972467 ] } },
{ "type": "Feature", "properties": { "id": 46, "nom": "Station Service Pétro Ivoire", "operateur": "Pétro Ivoire SA", "shop": false, "adresse": null, "ville_id": 1, "created_at": "2025-03-26T21:20:08.579" }, "geometry": { "type": "Point", "coordinates": [ -3.9506904, 5.299625 ] } },
{ "type": "Feature", "properties": { "id": 47, "nom": "Shell", "operateur": null, "shop": false, "adresse": "Yopougon;Abidjan;Côte d’Ivoire", "ville_id": 1, "created_at": "2025-03-26T21:20:08.579" }, "geometry": { "type": "Point", "coordinates": [ -4.0993139, 5.3547679 ] } },
{ "type": "Feature", "properties": { "id": 48, "nom": "Station Service Pétroci", "operateur": "Société Nationale d'Opérations Pétrolières de Côte d'Ivoire (PETROCI)", "shop": false, "adresse": "Yopougon;Abidjan;Côte d’Ivoire", "ville_id": 1, "created_at": "2025-03-26T21:20:08.579" }, "geometry": { "type": "Point", "coordinates": [ -4.0999213, 5.3463392 ] } },
{ "type": "Feature", "properties": { "id": 49, "nom": "Total Yop Banco nord", "operateur": "Total Côte d'Ivoire SA", "shop": false, "adresse": null, "ville_id": 1, "created_at": "2025-03-26T21:20:08.579" }, "geometry": { "type": "Point", "coordinates": [ -4.0909565, 5.3665453 ] } },
{ "type": "Feature", "properties": { "id": 50, "nom": "Station Service Pétro Ivoire Bonikro", "operateur": "Pétro Ivoire SA", "shop": false, "adresse": "Yopougon;Abidjan;Côte d’Ivoire", "ville_id": 1, "created_at": "2025-03-26T21:20:08.579" }, "geometry": { "type": "Point", "coordinates": [ -4.1037487, 5.3507676 ] } },
{ "type": "Feature", "properties": { "id": 51, "nom": "Ola Energy", "operateur": null, "shop": false, "adresse": null, "ville_id": 1, "created_at": "2025-03-26T21:20:08.579" }, "geometry": { "type": "Point", "coordinates": [ -4.0027718, 5.3096451 ] } },
{ "type": "Feature", "properties": { "id": 52, "nom": "Total Énergies Autoroute du Nord", "operateur": "Total Côte d'Ivoire SA", "shop": false, "adresse": null, "ville_id": 1, "created_at": "2025-03-26T21:20:08.579" }, "geometry": { "type": "Point", "coordinates": [ -4.0760448, 5.3608816 ] } },
{ "type": "Feature", "properties": { "id": 53, "nom": "Shell", "operateur": "Vivo Energy Côte d'Ivoire SA", "shop": false, "adresse": null, "ville_id": 1, "created_at": "2025-03-26T21:20:08.579" }, "geometry": { "type": "Point", "coordinates": [ -4.0791148, 5.3620056 ] } },
{ "type": "Feature", "properties": { "id": 54, "nom": "Shell", "operateur": "Vivo Energy Côte d'Ivoire SA", "shop": false, "adresse": null, "ville_id": 1, "created_at": "2025-03-26T21:20:08.579" }, "geometry": { "type": "Point", "coordinates": [ -4.0802792, 5.3618883 ] } },
{ "type": "Feature", "properties": { "id": 55, "nom": "Station Shell Boulevard Valéry Giscard d'Estaing", "operateur": "Vivo Energy Côte d'Ivoire SA", "shop": false, "adresse": null, "ville_id": 1, "created_at": "2025-03-26T21:20:08.579" }, "geometry": { "type": "Point", "coordinates": [ -3.9503931, 5.2481817 ] } },
{ "type": "Feature", "properties": { "id": 56, "nom": "Station Shell Boulevard Valéry Giscard d'Estaing", "operateur": "Vivo Energy Côte d'Ivoire SA", "shop": false, "adresse": null, "ville_id": 1, "created_at": "2025-03-26T21:20:08.579" }, "geometry": { "type": "Point", "coordinates": [ -3.9606103, 5.2635107 ] } },
{ "type": "Feature", "properties": { "id": 57, "nom": "Station Swann Oil", "operateur": "Groupe Swann", "shop": false, "adresse": null, "ville_id": 1, "created_at": "2025-03-26T21:20:08.579" }, "geometry": { "type": "Point", "coordinates": [ -3.9642334, 5.2735433 ] } },
{ "type": "Feature", "properties": { "id": 58, "nom": "Station Shell Boulevard lagunaire", "operateur": "Vivo Energy Côte d'Ivoire SA", "shop": false, "adresse": null, "ville_id": 1, "created_at": "2025-03-26T21:20:08.579" }, "geometry": { "type": "Point", "coordinates": [ -4.0166582, 5.326627 ] } },
{ "type": "Feature", "properties": { "id": 59, "nom": "Station Service Total Avenue Franchet d'Esperey", "operateur": "Total Côte d'Ivoire SA", "shop": false, "adresse": null, "ville_id": 1, "created_at": "2025-03-26T21:20:08.579" }, "geometry": { "type": "Point", "coordinates": [ -4.0175938, 5.322035 ] } },
{ "type": "Feature", "properties": { "id": 60, "nom": "Shell Plateau", "operateur": "Vivo Energy Côte d'Ivoire SA", "shop": false, "adresse": null, "ville_id": 1, "created_at": "2025-03-26T21:20:08.579" }, "geometry": { "type": "Point", "coordinates": [ -4.023044, 5.3257645 ] } },
{ "type": "Feature", "properties": { "id": 61, "nom": "Station Service IDC", "operateur": "Ivoirienne d'hydrocarbures (IDC) SARL", "shop": false, "adresse": null, "ville_id": 1, "created_at": "2025-03-26T21:20:08.579" }, "geometry": { "type": "Point", "coordinates": [ -3.9450243, 5.3054649 ] } },
{ "type": "Feature", "properties": { "id": 62, "nom": "Total", "operateur": "Total Côte d'Ivoire SA", "shop": false, "adresse": null, "ville_id": 1, "created_at": "2025-03-26T21:20:08.579" }, "geometry": { "type": "Point", "coordinates": [ -3.9464432, 5.3020238 ] } },
{ "type": "Feature", "properties": { "id": 63, "nom": "Station Service African Petroleum", "operateur": "African Petroleum Corp Ltd", "shop": false, "adresse": "Yopougon;Abidjan;Côte d’Ivoire", "ville_id": 1, "created_at": "2025-03-26T21:20:08.579" }, "geometry": { "type": "Point", "coordinates": [ -4.0852691, 5.3469181 ] } },
{ "type": "Feature", "properties": { "id": 64, "nom": "Station Star Oil Ananeraie", "operateur": "Star Oil Côte d'Ivoire", "shop": false, "adresse": "Yopougon;Abidjan;Côte d’Ivoire", "ville_id": 1, "created_at": "2025-03-26T21:20:08.579" }, "geometry": { "type": "Point", "coordinates": [ -4.1024442, 5.35497 ] } },
{ "type": "Feature", "properties": { "id": 65, "nom": "Station Shell Adiopodoumé", "operateur": "Vivo Energy Côte d'Ivoire SA", "shop": false, "adresse": null, "ville_id": 1, "created_at": "2025-03-26T21:20:08.579" }, "geometry": { "type": "Point", "coordinates": [ -4.1267674, 5.3374866 ] } },
{ "type": "Feature", "properties": { "id": 66, "nom": "Shell Boulevard Thérèse Houphouët-Boigny", "operateur": "Vivo Energy Côte d'Ivoire SA", "shop": false, "adresse": "Vieux Cocody;Cocody;Abidjan;Côte d'Ivoire", "ville_id": 1, "created_at": "2025-03-26T21:20:08.579" }, "geometry": { "type": "Point", "coordinates": [ -4.0015083, 5.3353826 ] } },
{ "type": "Feature", "properties": { "id": 67, "nom": "Ola Energy Autoroute d’Abobo", "operateur": "Ola Côte d’Ivoire", "shop": false, "adresse": null, "ville_id": 1, "created_at": "2025-03-26T21:20:08.579" }, "geometry": { "type": "Point", "coordinates": [ -4.029066, 5.3674107 ] } },
{ "type": "Feature", "properties": { "id": 68, "nom": "Station Service Shell", "operateur": "Vivo Energy Côte d'Ivoire SA", "shop": false, "adresse": null, "ville_id": 1, "created_at": "2025-03-26T21:20:08.579" }, "geometry": { "type": "Point", "coordinates": [ -4.0219411, 5.3833345 ] } },
{ "type": "Feature", "properties": { "id": 69, "nom": "Total Route Abobo", "operateur": "Total Côte d'Ivoire SA", "shop": false, "adresse": null, "ville_id": 1, "created_at": "2025-03-26T21:20:08.579" }, "geometry": { "type": "Point", "coordinates": [ -4.0205762, 5.3866254 ] } },
{ "type": "Feature", "properties": { "id": 70, "nom": "Station Service Vinko Pétroleum", "operateur": "Vinko Pétroleum SA Côte d'Ivoire", "shop": false, "adresse": null, "ville_id": 1, "created_at": "2025-03-26T21:20:08.579" }, "geometry": { "type": "Point", "coordinates": [ -4.0055267, 5.41549 ] } },
{ "type": "Feature", "properties": { "id": 71, "nom": "Station Service Total Palais des Sports", "operateur": "Total Côte d'Ivoire SA", "shop": false, "adresse": null, "ville_id": 1, "created_at": "2025-03-26T21:20:08.579" }, "geometry": { "type": "Point", "coordinates": [ -4.0037335, 5.2979775 ] } },
{ "type": "Feature", "properties": { "id": 72, "nom": "Station Service Shell", "operateur": "Vivo Energy Côte d'Ivoire SA", "shop": false, "adresse": "Yopougon;Abidjan;Côte d’Ivoire", "ville_id": 1, "created_at": "2025-03-26T21:20:08.579" }, "geometry": { "type": "Point", "coordinates": [ -4.0918803, 5.3397247 ] } },
{ "type": "Feature", "properties": { "id": 73, "nom": "Ola Energy", "operateur": null, "shop": false, "adresse": null, "ville_id": 1, "created_at": "2025-03-26T21:20:08.579" }, "geometry": { "type": "Point", "coordinates": [ -4.0809301, 5.3691385 ] } },
{ "type": "Feature", "properties": { "id": 74, "nom": "Station Service Shell", "operateur": "Vivo Energy Côte d'Ivoire SA", "shop": false, "adresse": null, "ville_id": 1, "created_at": "2025-03-26T21:20:08.579" }, "geometry": { "type": "Point", "coordinates": [ -4.0691588, 5.4439163 ] } },
{ "type": "Feature", "properties": { "id": 75, "nom": "Elf Lubrifiant", "operateur": null, "shop": false, "adresse": null, "ville_id": 1, "created_at": "2025-03-26T21:20:08.579" }, "geometry": { "type": "Point", "coordinates": [ -4.0800465, 5.3693002 ] } },
{ "type": "Feature", "properties": { "id": 76, "nom": "Station Service Pétro Ivoire", "operateur": "Pétro Ivoire SA", "shop": false, "adresse": "Bonoumin;Cocody;Abidjan;Côte d'Ivoire", "ville_id": 1, "created_at": "2025-03-26T21:20:08.579" }, "geometry": { "type": "Point", "coordinates": [ -3.9777873, 5.3565878 ] } },
{ "type": "Feature", "properties": { "id": 77, "nom": "Station Service Shell Latrille", "operateur": "Vivo Energy", "shop": false, "adresse": "Deux Plateaux;Cocody;Abidjan;Côte d'Ivoire", "ville_id": 1, "created_at": "2025-03-26T21:20:08.579" }, "geometry": { "type": "Point", "coordinates": [ -3.993699, 5.3810667 ] } },
{ "type": "Feature", "properties": { "id": 78, "nom": "Pétroci", "operateur": "Société Nationale d'Opérations Pétrolières de Côte d'Ivoire (PETROCI)", "shop": false, "adresse": "Deux Plateaux;Cocody;Abidjan;Côte d'Ivoire", "ville_id": 1, "created_at": "2025-03-26T21:20:08.579" }, "geometry": { "type": "Point", "coordinates": [ -3.9927402, 5.3854675 ] } },
{ "type": "Feature", "properties": { "id": 79, "nom": "Station Service Shell", "operateur": "Vivo Energy Côte d'Ivoire SA", "shop": false, "adresse": null, "ville_id": 1, "created_at": "2025-03-26T21:20:08.579" }, "geometry": { "type": "Point", "coordinates": [ -3.9781667, 5.2865121 ] } },
{ "type": "Feature", "properties": { "id": 80, "nom": "Station Service Pétroci", "operateur": "Société Nationale d'Opérations Pétrolières de Côte d'Ivoire (PETROCI)", "shop": false, "adresse": null, "ville_id": 1, "created_at": "2025-03-26T21:20:08.579" }, "geometry": { "type": "Point", "coordinates": [ -4.0058588, 5.3849271 ] } },
{ "type": "Feature", "properties": { "id": 81, "nom": "Oilibya", "operateur": "Libya Oil Côte d’Ivoire SA", "shop": false, "adresse": null, "ville_id": 1, "created_at": "2025-03-26T21:20:08.579" }, "geometry": { "type": "Point", "coordinates": [ -4.0063261, 5.4003835 ] } },
{ "type": "Feature", "properties": { "id": 82, "nom": "Station Service Shell", "operateur": "Vivo Energy Côte d'Ivoire SA", "shop": false, "adresse": null, "ville_id": 1, "created_at": "2025-03-26T21:20:08.579" }, "geometry": { "type": "Point", "coordinates": [ -4.0061961, 5.4116755 ] } },
{ "type": "Feature", "properties": { "id": 83, "nom": "Station Service Total Dokui", "operateur": "Total Côte d'Ivoire SA", "shop": false, "adresse": null, "ville_id": 1, "created_at": "2025-03-26T21:20:08.579" }, "geometry": { "type": "Point", "coordinates": [ -4.0062887, 5.4046572 ] } },
{ "type": "Feature", "properties": { "id": 84, "nom": "Station Service Shell", "operateur": "Vivo Energy Côte d'Ivoire SA", "shop": false, "adresse": null, "ville_id": 1, "created_at": "2025-03-26T21:20:08.579" }, "geometry": { "type": "Point", "coordinates": [ -4.0121506, 5.4343535 ] } },
{ "type": "Feature", "properties": { "id": 85, "nom": "elf", "operateur": null, "shop": false, "adresse": null, "ville_id": 1, "created_at": "2025-03-26T21:20:08.579" }, "geometry": { "type": "Point", "coordinates": [ -4.0126227, 5.4344176 ] } },
{ "type": "Feature", "properties": { "id": 86, "nom": null, "operateur": null, "shop": false, "adresse": null, "ville_id": 1, "created_at": "2025-03-26T21:20:08.579" }, "geometry": { "type": "Point", "coordinates": [ -4.011963, 5.3711811 ] } },
{ "type": "Feature", "properties": { "id": 87, "nom": "Station Service IDC", "operateur": "Ivoirienne d'hydrocarbures (IDC) SARL", "shop": false, "adresse": null, "ville_id": 1, "created_at": "2025-03-26T21:20:08.579" }, "geometry": { "type": "Point", "coordinates": [ -4.0025942, 5.4154231 ] } },
{ "type": "Feature", "properties": { "id": 88, "nom": "Station Service Pétro Ivoire", "operateur": "Pétro Ivoire SA", "shop": false, "adresse": null, "ville_id": 1, "created_at": "2025-03-26T21:20:08.579" }, "geometry": { "type": "Point", "coordinates": [ -4.0848409, 5.3596842 ] } },
{ "type": "Feature", "properties": { "id": 89, "nom": "Total Yop Ananeraie", "operateur": "Total Côte d'Ivoire SA", "shop": false, "adresse": "Yopougon;Abidjan;Côte d’Ivoire", "ville_id": 1, "created_at": "2025-03-26T21:20:08.579" }, "geometry": { "type": "Point", "coordinates": [ -4.0954163, 5.354898 ] } },
{ "type": "Feature", "properties": { "id": 90, "nom": "Station Service Pétro ivoire Gabon", "operateur": "Société Nationale d'Opérations Pétrolières de Côte d'Ivoire (PETROCI)", "shop": false, "adresse": null, "ville_id": 1, "created_at": "2025-03-26T21:20:08.579" }, "geometry": { "type": "Point", "coordinates": [ -3.9750024, 5.2940123 ] } },
{ "type": "Feature", "properties": { "id": 91, "nom": "Station Service Shell Ameca2", "operateur": "Vivo Energy Côte d'Ivoire SA", "shop": false, "adresse": null, "ville_id": 1, "created_at": "2025-03-26T21:20:08.579" }, "geometry": { "type": "Point", "coordinates": [ -3.9750227, 5.2936196 ] } },
{ "type": "Feature", "properties": { "id": 92, "nom": "Station shell RO Gabon", "operateur": null, "shop": false, "adresse": null, "ville_id": 1, "created_at": "2025-03-26T21:20:08.579" }, "geometry": { "type": "Point", "coordinates": [ -3.97315, 5.2929813 ] } },
{ "type": "Feature", "properties": { "id": 93, "nom": "Station Shell Nanan Yamousso", "operateur": "Vivo Energy Côte d'Ivoire SA", "shop": false, "adresse": null, "ville_id": 1, "created_at": "2025-03-26T21:20:08.579" }, "geometry": { "type": "Point", "coordinates": [ -4.0040048, 5.3035943 ] } },
{ "type": "Feature", "properties": { "id": 94, "nom": "Station AP", "operateur": null, "shop": false, "adresse": null, "ville_id": 1, "created_at": "2025-03-26T21:20:08.579" }, "geometry": { "type": "Point", "coordinates": [ -4.0228038, 5.3555067 ] } },
{ "type": "Feature", "properties": { "id": 95, "nom": "Station Service Shell", "operateur": "Vivo Energy Côte d'Ivoire SA", "shop": false, "adresse": null, "ville_id": 1, "created_at": "2025-03-26T21:20:08.579" }, "geometry": { "type": "Point", "coordinates": [ -4.0675953, 5.3284096 ] } },
{ "type": "Feature", "properties": { "id": 96, "nom": "Anda Oil", "operateur": null, "shop": false, "adresse": null, "ville_id": 1, "created_at": "2025-03-26T21:20:08.579" }, "geometry": { "type": "Point", "coordinates": [ -4.0265938, 5.3555453 ] } },
{ "type": "Feature", "properties": { "id": 97, "nom": "Corlay Boulevard de Marseille", "operateur": "Corlay Côte d'Ivoire SA", "shop": false, "adresse": null, "ville_id": 1, "created_at": "2025-03-26T21:20:08.579" }, "geometry": { "type": "Point", "coordinates": [ -3.9951671, 5.2915362 ] } },
{ "type": "Feature", "properties": { "id": 98, "nom": "Total Km 4", "operateur": "Total Côte d'Ivoire SA", "shop": false, "adresse": null, "ville_id": 1, "created_at": "2025-03-26T21:20:08.579" }, "geometry": { "type": "Point", "coordinates": [ -4.0025784, 5.2951315 ] } },
{ "type": "Feature", "properties": { "id": 99, "nom": "Ola Energy Boulevard de Marseille", "operateur": "Libya Oil Côte d’Ivoire SA", "shop": false, "adresse": null, "ville_id": 1, "created_at": "2025-03-26T21:20:08.579" }, "geometry": { "type": "Point", "coordinates": [ -4.0117992, 5.2990372 ] } },
{ "type": "Feature", "properties": { "id": 100, "nom": "Station Service Oilibya Avenue Christiani", "operateur": "Libya Oil Côte d’Ivoire SA", "shop": false, "adresse": null, "ville_id": 1, "created_at": "2025-03-26T21:20:08.579" }, "geometry": { "type": "Point", "coordinates": [ -4.0160975, 5.3090808 ] } },
{ "type": "Feature", "properties": { "id": 101, "nom": "Corlay", "operateur": "Corlay Côte d'Ivoire SA", "shop": false, "adresse": null, "ville_id": 1, "created_at": "2025-03-26T21:20:08.579" }, "geometry": { "type": "Point", "coordinates": [ -4.0081698, 5.2973048 ] } },
{ "type": "Feature", "properties": { "id": 102, "nom": "Station Service Total", "operateur": "Total Côte d'Ivoire SA", "shop": false, "adresse": "Djorogobité;Cocody;Abidjan;Côte d'Ivoire", "ville_id": 1, "created_at": "2025-03-26T21:20:08.579" }, "geometry": { "type": "Point", "coordinates": [ -3.9635555, 5.3787261 ] } },
{ "type": "Feature", "properties": { "id": 103, "nom": "Station Shell Avenue Christiani", "operateur": "Vivo Energy Côte d'Ivoire SA", "shop": false, "adresse": null, "ville_id": 1, "created_at": "2025-03-26T21:20:08.579" }, "geometry": { "type": "Point", "coordinates": [ -4.0165123, 5.3089077 ] } },
{ "type": "Feature", "properties": { "id": 104, "nom": "OLA", "operateur": "OLA", "shop": false, "adresse": "Deux Plateaux;Cocody;Abidjan;Côte d'Ivoire", "ville_id": 1, "created_at": "2025-03-26T21:20:08.579" }, "geometry": { "type": "Point", "coordinates": [ -3.98952, 5.3659134 ] } },
{ "type": "Feature", "properties": { "id": 105, "nom": "Station Service Corlay Plateau", "operateur": "Corlay Côte d'Ivoire SA", "shop": false, "adresse": null, "ville_id": 1, "created_at": "2025-03-26T21:20:08.579" }, "geometry": { "type": "Point", "coordinates": [ -4.0221738, 5.3243435 ] } },
{ "type": "Feature", "properties": { "id": 106, "nom": "Total Energies Martyrs", "operateur": "Total Côte d'Ivoire SA", "shop": false, "adresse": null, "ville_id": 1, "created_at": "2025-03-26T21:20:08.579" }, "geometry": { "type": "Point", "coordinates": [ -4.0033771, 5.3429114 ] } },
{ "type": "Feature", "properties": { "id": 107, "nom": "Station Shell Boulevard du Gabon", "operateur": "Vivo Energy Côte d'Ivoire SA", "shop": false, "adresse": null, "ville_id": 1, "created_at": "2025-03-26T21:20:08.579" }, "geometry": { "type": "Point", "coordinates": [ -3.9796661, 5.2962463 ] } },
{ "type": "Feature", "properties": { "id": 108, "nom": "Star Oil", "operateur": null, "shop": false, "adresse": null, "ville_id": 1, "created_at": "2025-03-26T21:20:08.579" }, "geometry": { "type": "Point", "coordinates": [ -4.0119412, 5.4178564 ] } },
{ "type": "Feature", "properties": { "id": 109, "nom": null, "operateur": null, "shop": false, "adresse": null, "ville_id": 1, "created_at": "2025-03-26T21:20:08.579" }, "geometry": { "type": "Point", "coordinates": [ -3.9956854, 5.4146278 ] } },
{ "type": "Feature", "properties": { "id": 110, "nom": "Station Service Shell Le Paris", "operateur": "Vivo Energy Côte d'Ivoire SA", "shop": false, "adresse": null, "ville_id": 1, "created_at": "2025-03-26T21:20:08.579" }, "geometry": { "type": "Point", "coordinates": [ -4.0173826, 5.3231737 ] } },
{ "type": "Feature", "properties": { "id": 111, "nom": "Shell Rue Pierre et Marie Curie", "operateur": "Vivo Energy Côte d'Ivoire SA", "shop": false, "adresse": null, "ville_id": 1, "created_at": "2025-03-26T21:20:08.579" }, "geometry": { "type": "Point", "coordinates": [ -3.9826761, 5.2941874 ] } },
{ "type": "Feature", "properties": { "id": 112, "nom": "Total Route zoo", "operateur": "Total Côte d'Ivoire SA", "shop": false, "adresse": null, "ville_id": 1, "created_at": "2025-03-26T21:20:08.579" }, "geometry": { "type": "Point", "coordinates": [ -4.0159604, 5.3637581 ] } },
{ "type": "Feature", "properties": { "id": 113, "nom": "Station Service Total Yopougon CHU", "operateur": "Total Côte d'Ivoire SA", "shop": false, "adresse": "Yopougon;Abidjan;Côte d’Ivoire", "ville_id": 1, "created_at": "2025-03-26T21:20:08.579" }, "geometry": { "type": "Point", "coordinates": [ -4.084068, 5.3555239 ] } },
{ "type": "Feature", "properties": { "id": 114, "nom": "Shell", "operateur": "Vivo Energy Côte d'Ivoire SA", "shop": false, "adresse": null, "ville_id": 1, "created_at": "2025-03-26T21:20:08.579" }, "geometry": { "type": "Point", "coordinates": [ -3.9870223, 5.33665 ] } },
{ "type": "Feature", "properties": { "id": 115, "nom": "Shell Sainte-Famille", "operateur": "Vivo Energy Côte d'Ivoire SA", "shop": false, "adresse": "Riviéra 3;Cocody;Abidjan;Côte d'Ivoire", "ville_id": 1, "created_at": "2025-03-26T21:20:08.579" }, "geometry": { "type": "Point", "coordinates": [ -3.9676331, 5.3562293 ] } },
{ "type": "Feature", "properties": { "id": 116, "nom": "Station Service Shell", "operateur": "Vivo Energy Côte d'Ivoire SA", "shop": false, "adresse": null, "ville_id": 1, "created_at": "2025-03-26T21:20:08.579" }, "geometry": { "type": "Point", "coordinates": [ -3.9248537, 5.3741222 ] } },
{ "type": "Feature", "properties": { "id": 117, "nom": "IDC Sococé", "operateur": "Ivoirienne d'hydrocarbures (IDC) SARL", "shop": false, "adresse": null, "ville_id": 1, "created_at": "2025-03-26T21:20:08.579" }, "geometry": { "type": "Point", "coordinates": [ -3.9989138, 5.3727294 ] } },
{ "type": "Feature", "properties": { "id": 118, "nom": "Station Service Shell Sortie Rue des Jardins", "operateur": "Vivo Energy Côte d'Ivoire SA", "shop": false, "adresse": "Deux Plateaux;Cocody;Abidjan;Côte d'Ivoire", "ville_id": 1, "created_at": "2025-03-26T21:20:08.579" }, "geometry": { "type": "Point", "coordinates": [ -3.9954899, 5.3544712 ] } },
{ "type": "Feature", "properties": { "id": 119, "nom": "Station Service Total Adjamé Sud", "operateur": "Total Côte d'Ivoire SA", "shop": false, "adresse": "Adjamé;Abidjan;Côte d'Ivoire", "ville_id": 1, "created_at": "2025-03-26T21:20:08.579" }, "geometry": { "type": "Point", "coordinates": [ -4.0172571, 5.3495587 ] } },
{ "type": "Feature", "properties": { "id": 120, "nom": "Station Service Vinko Pétroleum", "operateur": "Vinko Pétroleum SA Côte d'Ivoire", "shop": false, "adresse": null, "ville_id": 1, "created_at": "2025-03-26T21:20:08.579" }, "geometry": { "type": "Point", "coordinates": [ -3.9373888, 5.3097268 ] } },
{ "type": "Feature", "properties": { "id": 121, "nom": "Total Yop ZI", "operateur": "Total Côte d'Ivoire SA", "shop": false, "adresse": null, "ville_id": 1, "created_at": "2025-03-26T21:20:08.579" }, "geometry": { "type": "Point", "coordinates": [ -4.0755896, 5.3783808 ] } },
{ "type": "Feature", "properties": { "id": 122, "nom": "Station Service Total Las Palmas", "operateur": "Total Côte d'Ivoire SA", "shop": false, "adresse": null, "ville_id": 1, "created_at": "2025-03-26T21:20:08.579" }, "geometry": { "type": "Point", "coordinates": [ -3.9951315, 5.3805334 ] } },
{ "type": "Feature", "properties": { "id": 123, "nom": "Station Service Shell", "operateur": "Vivo Energy Côte d'Ivoire SA", "shop": false, "adresse": null, "ville_id": 1, "created_at": "2025-03-26T21:20:08.579" }, "geometry": { "type": "Point", "coordinates": [ -3.9317142, 5.3716833 ] } },
{ "type": "Feature", "properties": { "id": 124, "nom": "Station Service Total", "operateur": "Total Côte d'Ivoire SA", "shop": false, "adresse": null, "ville_id": 1, "created_at": "2025-03-26T21:20:08.579" }, "geometry": { "type": "Point", "coordinates": [ -3.9532676, 5.3636509 ] } },
{ "type": "Feature", "properties": { "id": 125, "nom": "Station Service Total", "operateur": "Total Côte d'Ivoire SA", "shop": false, "adresse": null, "ville_id": 1, "created_at": "2025-03-26T21:20:08.579" }, "geometry": { "type": "Point", "coordinates": [ -3.9461954, 5.3674244 ] } },
{ "type": "Feature", "properties": { "id": 126, "nom": "Station Service First Petroleum Riviéra 2", "operateur": "First Pétroleum", "shop": false, "adresse": null, "ville_id": 1, "created_at": "2025-03-26T21:20:08.579" }, "geometry": { "type": "Point", "coordinates": [ -3.9761398, 5.3511837 ] } },
{ "type": "Feature", "properties": { "id": 127, "nom": "Station Shell Riviéra 2", "operateur": "Vivo Energy Côte d'Ivoire SA", "shop": false, "adresse": null, "ville_id": 1, "created_at": "2025-03-26T21:20:08.579" }, "geometry": { "type": "Point", "coordinates": [ -3.9755488, 5.3482138 ] } },
{ "type": "Feature", "properties": { "id": 128, "nom": "Station Service Pétro Ivoire 7e tranche", "operateur": "Pétro Ivoire SA", "shop": false, "adresse": null, "ville_id": 1, "created_at": "2025-03-26T21:20:08.579" }, "geometry": { "type": "Point", "coordinates": [ -3.9883089, 5.3805279 ] } },
{ "type": "Feature", "properties": { "id": 129, "nom": "Ola", "operateur": null, "shop": false, "adresse": null, "ville_id": 1, "created_at": "2025-03-26T21:20:08.579" }, "geometry": { "type": "Point", "coordinates": [ -4.0163825, 5.4149148 ] } },
{ "type": "Feature", "properties": { "id": 130, "nom": "Station Service Total Boulevard du 7 Décembre", "operateur": "Total Côte d'Ivoire SA", "shop": false, "adresse": null, "ville_id": 1, "created_at": "2025-03-26T21:20:08.579" }, "geometry": { "type": "Point", "coordinates": [ -3.9697998, 5.2881776 ] } },
{ "type": "Feature", "properties": { "id": 131, "nom": "Station Service Total", "operateur": "Total Côte d'Ivoire SA", "shop": false, "adresse": null, "ville_id": 1, "created_at": "2025-03-26T21:20:08.579" }, "geometry": { "type": "Point", "coordinates": [ -3.9694713, 5.2893047 ] } },
{ "type": "Feature", "properties": { "id": 132, "nom": "Ola", "operateur": null, "shop": false, "adresse": null, "ville_id": 1, "created_at": "2025-03-26T21:20:08.579" }, "geometry": { "type": "Point", "coordinates": [ -4.0017891, 5.2981661 ] } },
{ "type": "Feature", "properties": { "id": 133, "nom": "Station Shell Zone 2", "operateur": "Vivo Energy Côte d'Ivoire SA", "shop": false, "adresse": null, "ville_id": 1, "created_at": "2025-03-26T21:20:08.579" }, "geometry": { "type": "Point", "coordinates": [ -4.0013621, 5.2983671 ] } },
{ "type": "Feature", "properties": { "id": 134, "nom": "Shell", "operateur": "Vivo Energy Côte d'Ivoire SA", "shop": false, "adresse": null, "ville_id": 1, "created_at": "2025-03-26T21:20:08.579" }, "geometry": { "type": "Point", "coordinates": [ -4.0952107, 5.3654558 ] } },
{ "type": "Feature", "properties": { "id": 135, "nom": "Station Service Shell", "operateur": "Vivo Energy Côte d'Ivoire SA", "shop": false, "adresse": null, "ville_id": 1, "created_at": "2025-03-26T21:20:08.579" }, "geometry": { "type": "Point", "coordinates": [ -4.048148, 5.3592095 ] } },
{ "type": "Feature", "properties": { "id": 136, "nom": "Shell Vridi", "operateur": "Vivo Energy Côte d'Ivoire SA", "shop": false, "adresse": null, "ville_id": 1, "created_at": "2025-03-26T21:20:08.579" }, "geometry": { "type": "Point", "coordinates": [ -4.0027327, 5.2677538 ] } },
{ "type": "Feature", "properties": { "id": 137, "nom": "Station Service Total Vridi", "operateur": "Total Côte d'Ivoire SA", "shop": false, "adresse": null, "ville_id": 1, "created_at": "2025-03-26T21:20:08.579" }, "geometry": { "type": "Point", "coordinates": [ -4.0035635, 5.2685575 ] } },
{ "type": "Feature", "properties": { "id": 138, "nom": "Total Énergies - Port de Pêche", "operateur": null, "shop": false, "adresse": null, "ville_id": 1, "created_at": "2025-03-26T21:20:08.579" }, "geometry": { "type": "Point", "coordinates": [ -4.0086734, 5.2902319 ] } },
{ "type": "Feature", "properties": { "id": 139, "nom": "Station Service Shell", "operateur": "Vivo Energy Côte d'Ivoire SA", "shop": false, "adresse": null, "ville_id": 1, "created_at": "2025-03-26T21:20:08.579" }, "geometry": { "type": "Point", "coordinates": [ -3.9902992, 5.4211426 ] } },
{ "type": "Feature", "properties": { "id": 140, "nom": "Station Shell de CHUT", "operateur": "Vivo Energy Côte d'Ivoire SA", "shop": false, "adresse": null, "ville_id": 1, "created_at": "2025-03-26T21:20:08.579" }, "geometry": { "type": "Point", "coordinates": [ -4.0018331, 5.2941682 ] } },
{ "type": "Feature", "properties": { "id": 141, "nom": "Station Service Shell", "operateur": "Vivo Energy Côte d'Ivoire SA", "shop": false, "adresse": null, "ville_id": 1, "created_at": "2025-03-26T21:20:08.579" }, "geometry": { "type": "Point", "coordinates": [ -3.9754719, 5.3893971 ] } },
{ "type": "Feature", "properties": { "id": 142, "nom": "Station Service Oilibya Petit Bassam", "operateur": "Libya Oil Côte d’Ivoire SA", "shop": false, "adresse": null, "ville_id": 1, "created_at": "2025-03-26T21:20:08.579" }, "geometry": { "type": "Point", "coordinates": [ -3.9717259, 5.2576745 ] } },
{ "type": "Feature", "properties": { "id": 143, "nom": "Corlay Boulevard du Général de Gaulle", "operateur": "Corlay Côte d'Ivoire SA", "shop": false, "adresse": null, "ville_id": 1, "created_at": "2025-03-26T21:20:08.579" }, "geometry": { "type": "Point", "coordinates": [ -4.0160839, 5.3154256 ] } },
{ "type": "Feature", "properties": { "id": 144, "nom": "Station Swann Oil", "operateur": "Groupe Swann", "shop": false, "adresse": null, "ville_id": 1, "created_at": "2025-03-26T21:20:08.579" }, "geometry": { "type": "Point", "coordinates": [ -3.966328, 5.27684 ] } },
{ "type": "Feature", "properties": { "id": 145, "nom": "Station Service Vinko Pétroleum Petit Bassam", "operateur": "Vinko Pétroleum SA Côte d'Ivoire", "shop": false, "adresse": null, "ville_id": 1, "created_at": "2025-03-26T21:20:08.579" }, "geometry": { "type": "Point", "coordinates": [ -3.9732798, 5.2567114 ] } },
{ "type": "Feature", "properties": { "id": 146, "nom": "Station Elf Plateau", "operateur": "Total Côte d'Ivoire SA", "shop": false, "adresse": null, "ville_id": 1, "created_at": "2025-03-26T21:20:08.579" }, "geometry": { "type": "Point", "coordinates": [ -4.023768, 5.325989 ] } },
{ "type": "Feature", "properties": { "id": 147, "nom": "Station Service IDC Koumassi", "operateur": "Ivoirienne d'hydrocarbures (IDC) SARL", "shop": false, "adresse": null, "ville_id": 1, "created_at": "2025-03-26T21:20:08.579" }, "geometry": { "type": "Point", "coordinates": [ -3.9636107, 5.2838451 ] } },
{ "type": "Feature", "properties": { "id": 148, "nom": "Station Service Pétroci Koumassi", "operateur": "Société Nationale d'Opérations Pétrolières de Côte d'Ivoire (PETROCI)", "shop": false, "adresse": null, "ville_id": 1, "created_at": "2025-03-26T21:20:08.579" }, "geometry": { "type": "Point", "coordinates": [ -3.9630121, 5.2835536 ] } },
{ "type": "Feature", "properties": { "id": 149, "nom": "Station Shell Koumassi", "operateur": "Vivo Energy Côte d'Ivoire SA", "shop": false, "adresse": null, "ville_id": 1, "created_at": "2025-03-26T21:20:08.579" }, "geometry": { "type": "Point", "coordinates": [ -3.9614367, 5.2838761 ] } },
{ "type": "Feature", "properties": { "id": 150, "nom": "Station Service Vinko Pétroleum Koumassi", "operateur": "Vinko Pétroleum SA Côte d'Ivoire", "shop": false, "adresse": null, "ville_id": 1, "created_at": "2025-03-26T21:20:08.579" }, "geometry": { "type": "Point", "coordinates": [ -3.9584699, 5.2846034 ] } },
{ "type": "Feature", "properties": { "id": 151, "nom": "Station Service Shell", "operateur": "Vivo Energy Côte d'Ivoire SA", "shop": false, "adresse": "Yopougon;Abidjan;Côte d’Ivoire", "ville_id": 1, "created_at": "2025-03-26T21:20:08.579" }, "geometry": { "type": "Point", "coordinates": [ -4.082797, 5.3478572 ] } },
{ "type": "Feature", "properties": { "id": 152, "nom": "OLA Energy", "operateur": "OLA energy Côte d'Ivoire", "shop": false, "adresse": null, "ville_id": 1, "created_at": "2025-03-26T21:20:08.579" }, "geometry": { "type": "Point", "coordinates": [ -3.9714348, 5.2983695 ] } },
{ "type": "Feature", "properties": { "id": 153, "nom": "Station Shell Boulevard du Cameroun", "operateur": "Vivo Energy Côte d'Ivoire SA", "shop": false, "adresse": null, "ville_id": 1, "created_at": "2025-03-26T21:20:08.579" }, "geometry": { "type": "Point", "coordinates": [ -3.9684294, 5.2963323 ] } },
{ "type": "Feature", "properties": { "id": 154, "nom": "Station Service Corlay Boulevard du Cameroun", "operateur": "Corlay Côte d'Ivoire SA", "shop": false, "adresse": null, "ville_id": 1, "created_at": "2025-03-26T21:20:08.579" }, "geometry": { "type": "Point", "coordinates": [ -3.9682006, 5.296776 ] } },
{ "type": "Feature", "properties": { "id": 155, "nom": "Shell", "operateur": "Vivo Energy Côte d'Ivoire SA", "shop": false, "adresse": null, "ville_id": 1, "created_at": "2025-03-26T21:20:08.579" }, "geometry": { "type": "Point", "coordinates": [ -4.049348, 5.322089 ] } },
{ "type": "Feature", "properties": { "id": 156, "nom": "Shell", "operateur": "Vivo Energy Côte d'Ivoire SA", "shop": false, "adresse": null, "ville_id": 1, "created_at": "2025-03-26T21:20:08.579" }, "geometry": { "type": "Point", "coordinates": [ -4.0251619, 5.3630231 ] } },
{ "type": "Feature", "properties": { "id": 157, "nom": "Afriquia", "operateur": null, "shop": false, "adresse": null, "ville_id": 1, "created_at": "2025-03-26T21:20:08.579" }, "geometry": { "type": "Point", "coordinates": [ -4.0950098, 5.366449 ] } },
{ "type": "Feature", "properties": { "id": 158, "nom": "Sodepci", "operateur": "Société de Distribution de Produits Pétroliers en Côte D’Ivoire (SODEPCI)", "shop": false, "adresse": null, "ville_id": 1, "created_at": "2025-03-26T21:20:08.579" }, "geometry": { "type": "Point", "coordinates": [ -4.0981219, 5.3665676 ] } },
{ "type": "Feature", "properties": { "id": 159, "nom": "Station Shell Bietry", "operateur": "Vivo Energy Côte d'Ivoire SA", "shop": false, "adresse": null, "ville_id": 1, "created_at": "2025-03-26T21:20:08.579" }, "geometry": { "type": "Point", "coordinates": [ -3.9819778, 5.2781323 ] } },
{ "type": "Feature", "properties": { "id": 160, "nom": "Station Shell Marcory Résidentiel", "operateur": "Vivo Energy Côte d'Ivoire SA", "shop": false, "adresse": null, "ville_id": 1, "created_at": "2025-03-26T21:20:08.579" }, "geometry": { "type": "Point", "coordinates": [ -3.9949011, 5.3079485 ] } },
{ "type": "Feature", "properties": { "id": 161, "nom": "Station Service Total Marcory Résidentiel", "operateur": "Total Côte d'Ivoire SA", "shop": false, "adresse": null, "ville_id": 1, "created_at": "2025-03-26T21:20:08.579" }, "geometry": { "type": "Point", "coordinates": [ -3.9926255, 5.3081032 ] } },
{ "type": "Feature", "properties": { "id": 162, "nom": "Corlay Marcory Résidentiel", "operateur": "Corlay Côte d'Ivoire SA", "shop": false, "adresse": null, "ville_id": 1, "created_at": "2025-03-26T21:20:08.579" }, "geometry": { "type": "Point", "coordinates": [ -3.9913121, 5.3085714 ] } },
{ "type": "Feature", "properties": { "id": 163, "nom": "Station Service Corlay", "operateur": "Libya Oil Côte D'Ivoire SA", "shop": false, "adresse": null, "ville_id": 1, "created_at": "2025-03-26T21:20:08.579" }, "geometry": { "type": "Point", "coordinates": [ -3.9882028, 5.3023676 ] } },
{ "type": "Feature", "properties": { "id": 164, "nom": "Africa Petrolum", "operateur": "Africa Petrolum", "shop": false, "adresse": null, "ville_id": 1, "created_at": "2025-03-26T21:20:08.579" }, "geometry": { "type": "Point", "coordinates": [ -3.9876168, 5.3025123 ] } },
{ "type": "Feature", "properties": { "id": 165, "nom": "Station Service Corlay", "operateur": "Corlay Côte d'Ivoire SA", "shop": false, "adresse": null, "ville_id": 1, "created_at": "2025-03-26T21:20:08.579" }, "geometry": { "type": "Point", "coordinates": [ -4.0095201, 5.3080378 ] } },
{ "type": "Feature", "properties": { "id": 166, "nom": "Station Service Total Ave Ouézzin Coulibaly", "operateur": "Total Côte d'Ivoire SA", "shop": false, "adresse": null, "ville_id": 1, "created_at": "2025-03-26T21:20:08.579" }, "geometry": { "type": "Point", "coordinates": [ -4.0102013, 5.3017521 ] } },
{ "type": "Feature", "properties": { "id": 167, "nom": "Corlay Rue des Jardins", "operateur": "Corlay Côte d'Ivoire SA", "shop": false, "adresse": "Deux Plateaux;Cocody;Abidjan;Côte d'Ivoire", "ville_id": 1, "created_at": "2025-03-26T21:20:08.579" }, "geometry": { "type": "Point", "coordinates": [ -3.991559, 5.3555916 ] } },
{ "type": "Feature", "properties": { "id": 168, "nom": "Pétroci", "operateur": "Société Nationale d'Opérations Pétrolières de Côte d'Ivoire (PETROCI)", "shop": false, "adresse": null, "ville_id": 1, "created_at": "2025-03-26T21:20:08.579" }, "geometry": { "type": "Point", "coordinates": [ -4.0405497, 5.3568373 ] } },
{ "type": "Feature", "properties": { "id": 169, "nom": "Shell", "operateur": "Vivo Energy Côte d'Ivoire SA", "shop": false, "adresse": null, "ville_id": 1, "created_at": "2025-03-26T21:20:08.579" }, "geometry": { "type": "Point", "coordinates": [ -4.0400316, 5.3537257 ] } },
{ "type": "Feature", "properties": { "id": 170, "nom": "Ola Energy Route de Dabou", "operateur": "Ola Côte d’Ivoire", "shop": false, "adresse": null, "ville_id": 1, "created_at": "2025-03-26T21:20:08.579" }, "geometry": { "type": "Point", "coordinates": [ -4.0323992, 5.3591624 ] } },
{ "type": "Feature", "properties": { "id": 171, "nom": "Station Service PetroIvoire Ananeraie", "operateur": "PetroIvoire S.A.", "shop": false, "adresse": null, "ville_id": 1, "created_at": "2025-03-26T21:20:08.579" }, "geometry": { "type": "Point", "coordinates": [ -4.0319975, 5.3587625 ] } },
{ "type": "Feature", "properties": { "id": 172, "nom": "Shell", "operateur": "Vivo Energy Côte d'Ivoire SA", "shop": false, "adresse": null, "ville_id": 1, "created_at": "2025-03-26T21:20:08.579" }, "geometry": { "type": "Point", "coordinates": [ -4.0303694, 5.3457611 ] } },
{ "type": "Feature", "properties": { "id": 173, "nom": "Station Service Total Pont HKB-Riviéra", "operateur": "Total Côte d'Ivoire SA", "shop": false, "adresse": "Riviera 1;Cocody;Abidjan;Côte d'Ivoire", "ville_id": 1, "created_at": "2025-03-26T21:20:08.579" }, "geometry": { "type": "Point", "coordinates": [ -3.9818299, 5.3305068 ] } },
{ "type": "Feature", "properties": { "id": 174, "nom": "Station Service Ivoire Pétroleum", "operateur": "Ivoire Pétroleum", "shop": false, "adresse": null, "ville_id": 1, "created_at": "2025-03-26T21:20:08.579" }, "geometry": { "type": "Point", "coordinates": [ -3.9743353, 5.3846572 ] } },
{ "type": "Feature", "properties": { "id": 175, "nom": "Ola Energy", "operateur": null, "shop": false, "adresse": null, "ville_id": 1, "created_at": "2025-03-26T21:20:08.579" }, "geometry": { "type": "Point", "coordinates": [ -3.998664, 5.3444007 ] } },
{ "type": "Feature", "properties": { "id": 176, "nom": null, "operateur": null, "shop": false, "adresse": null, "ville_id": 1, "created_at": "2025-03-26T21:20:08.579" }, "geometry": { "type": "Point", "coordinates": [ -3.9340043, 5.2570492 ] } },
{ "type": "Feature", "properties": { "id": 177, "nom": "Station Service Pétroci", "operateur": "Société Nationale d'Opérations Pétrolières de Côte d'Ivoire (PETROCI)", "shop": false, "adresse": null, "ville_id": 1, "created_at": "2025-03-26T21:20:08.579" }, "geometry": { "type": "Point", "coordinates": [ -3.969168, 5.3019766 ] } },
{ "type": "Feature", "properties": { "id": 178, "nom": "Station Service Total", "operateur": "Total Côte d'Ivoire SA", "shop": false, "adresse": null, "ville_id": 1, "created_at": "2025-03-26T21:20:08.579" }, "geometry": { "type": "Point", "coordinates": [ -4.0113556, 5.3107502 ] } },
{ "type": "Feature", "properties": { "id": 179, "nom": "Station Carrefour Koumassi", "operateur": null, "shop": false, "adresse": null, "ville_id": 1, "created_at": "2025-03-26T21:20:08.579" }, "geometry": { "type": "Point", "coordinates": [ -3.9714592, 5.2883751 ] } },
{ "type": "Feature", "properties": { "id": 180, "nom": "Total Koumassi-VGE", "operateur": "Total Côte d'Ivoire SA", "shop": false, "adresse": null, "ville_id": 1, "created_at": "2025-03-26T21:20:08.579" }, "geometry": { "type": "Point", "coordinates": [ -3.9708458, 5.2899769 ] } },
{ "type": "Feature", "properties": { "id": 181, "nom": "Station Service African Petroleum", "operateur": "African Petroleum Corp Ltd", "shop": false, "adresse": null, "ville_id": 1, "created_at": "2025-03-26T21:20:08.579" }, "geometry": { "type": "Point", "coordinates": [ -3.9840591, 5.3051037 ] } },
{ "type": "Feature", "properties": { "id": 182, "nom": null, "operateur": null, "shop": false, "adresse": null, "ville_id": 1, "created_at": "2025-03-26T21:20:08.579" }, "geometry": { "type": "Point", "coordinates": [ -4.026626, 5.3543907 ] } },
{ "type": "Feature", "properties": { "id": 183, "nom": "Station Service First Pétroleum", "operateur": "First Pétroleum", "shop": false, "adresse": null, "ville_id": 1, "created_at": "2025-03-26T21:20:08.579" }, "geometry": { "type": "Point", "coordinates": [ -4.1051261, 5.3282219 ] } },
{ "type": "Feature", "properties": { "id": 184, "nom": "Station Service Shell", "operateur": "Vivo Energy Côte d'Ivoire SA", "shop": false, "adresse": null, "ville_id": 1, "created_at": "2025-03-26T21:20:08.579" }, "geometry": { "type": "Point", "coordinates": [ -4.0910302, 5.3307259 ] } },
{ "type": "Feature", "properties": { "id": 185, "nom": "Shell", "operateur": "Vivo Energy Côte d'Ivoire SA", "shop": false, "adresse": null, "ville_id": 1, "created_at": "2025-03-26T21:20:08.579" }, "geometry": { "type": "Point", "coordinates": [ -4.0631027, 5.3470581 ] } },
{ "type": "Feature", "properties": { "id": 186, "nom": "Shell", "operateur": "Vivo Energy Côte d'Ivoire SA", "shop": false, "adresse": null, "ville_id": 1, "created_at": "2025-03-26T21:20:08.579" }, "geometry": { "type": "Point", "coordinates": [ -4.0225725, 5.34977 ] } },
{ "type": "Feature", "properties": { "id": 187, "nom": "Station Service Shell", "operateur": "Vivo Energy Côte d'Ivoire SA", "shop": false, "adresse": null, "ville_id": 1, "created_at": "2025-03-26T21:20:08.579" }, "geometry": { "type": "Point", "coordinates": [ -4.0168661, 5.3522349 ] } },
{ "type": "Feature", "properties": { "id": 188, "nom": "Station Service Shell", "operateur": "Vivo Energy Côte d'Ivoire SA", "shop": false, "adresse": "Yopougon;Abidjan;Côte d’Ivoire", "ville_id": 1, "created_at": "2025-03-26T21:20:08.579" }, "geometry": { "type": "Point", "coordinates": [ -4.0852433, 5.3564646 ] } },
{ "type": "Feature", "properties": { "id": 189, "nom": "Station Service Corlay", "operateur": "Corlay Côte d'Ivoire SA", "shop": false, "adresse": null, "ville_id": 1, "created_at": "2025-03-26T21:20:08.579" }, "geometry": { "type": "Point", "coordinates": [ -4.0914569, 5.3267987 ] } },
{ "type": "Feature", "properties": { "id": 190, "nom": "Station Service Pétro Ivoire", "operateur": "Pétro Ivoire SA", "shop": false, "adresse": "Yopougon;Abidjan;Côte d’Ivoire", "ville_id": 1, "created_at": "2025-03-26T21:20:08.579" }, "geometry": { "type": "Point", "coordinates": [ -4.09061, 5.3351229 ] } },
{ "type": "Feature", "properties": { "id": 191, "nom": "Shell Yopougon Cité Verte", "operateur": "Vivo Energy Côte d'Ivoire SA", "shop": false, "adresse": null, "ville_id": 1, "created_at": "2025-03-26T21:20:08.579" }, "geometry": { "type": "Point", "coordinates": [ -4.104225, 5.3300902 ] } },
{ "type": "Feature", "properties": { "id": 192, "nom": "Station Service Shell", "operateur": "Vivo Energy Côte d'Ivoire SA", "shop": false, "adresse": null, "ville_id": 1, "created_at": "2025-03-26T21:20:08.579" }, "geometry": { "type": "Point", "coordinates": [ -4.0899448, 5.3162963 ] } },
{ "type": "Feature", "properties": { "id": 193, "nom": "Station Service Vinko Pétroleum", "operateur": "Vinko Pétroleum SA Côte d'Ivoire", "shop": false, "adresse": "Yopougon;Abidjan;Côte d’Ivoire", "ville_id": 1, "created_at": "2025-03-26T21:20:08.579" }, "geometry": { "type": "Point", "coordinates": [ -4.1007187, 5.3593661 ] } },
{ "type": "Feature", "properties": { "id": 194, "nom": "Station Service Total Boulevard du 7 Décembre", "operateur": "Total Côte d'Ivoire SA", "shop": false, "adresse": null, "ville_id": 1, "created_at": "2025-03-26T21:20:08.579" }, "geometry": { "type": "Point", "coordinates": [ -3.9699368, 5.2885562 ] } },
{ "type": "Feature", "properties": { "id": 195, "nom": "Station Service African Petroleum", "operateur": "African Petroleum Corp Ltd", "shop": false, "adresse": null, "ville_id": 1, "created_at": "2025-03-26T21:20:08.579" }, "geometry": { "type": "Point", "coordinates": [ -3.9733118, 5.2993575 ] } },
{ "type": "Feature", "properties": { "id": 196, "nom": "Shell Autoroute du Nord", "operateur": "Vivo Energy Côte d'Ivoire SA", "shop": false, "adresse": null, "ville_id": 1, "created_at": "2025-03-26T21:20:08.579" }, "geometry": { "type": "Point", "coordinates": [ -4.1017669, 5.3678903 ] } },
{ "type": "Feature", "properties": { "id": 197, "nom": "Total Yop Banco sud", "operateur": null, "shop": false, "adresse": null, "ville_id": 1, "created_at": "2025-03-26T21:20:08.579" }, "geometry": { "type": "Point", "coordinates": [ -4.0605202, 5.3286994 ] } },
{ "type": "Feature", "properties": { "id": 198, "nom": "Total", "operateur": "Total Côte d'Ivoire SA", "shop": false, "adresse": null, "ville_id": 1, "created_at": "2025-03-26T21:20:08.579" }, "geometry": { "type": "Point", "coordinates": [ -4.0706625, 5.3595715 ] } },
{ "type": "Feature", "properties": { "id": 199, "nom": "Pétro ivoire", "operateur": null, "shop": false, "adresse": null, "ville_id": 1, "created_at": "2025-03-26T21:20:08.579" }, "geometry": { "type": "Point", "coordinates": [ -4.0623618, 5.3315343 ] } },
{ "type": "Feature", "properties": { "id": 200, "nom": "Star Oil", "operateur": null, "shop": false, "adresse": null, "ville_id": 1, "created_at": "2025-03-26T21:20:08.579" }, "geometry": { "type": "Point", "coordinates": [ -4.0625297, 5.3379912 ] } },
{ "type": "Feature", "properties": { "id": 201, "nom": "Petroci", "operateur": null, "shop": false, "adresse": null, "ville_id": 1, "created_at": "2025-03-26T21:20:08.579" }, "geometry": { "type": "Point", "coordinates": [ -4.0909813, 5.3340205 ] } },
{ "type": "Feature", "properties": { "id": 202, "nom": "Sogel-Ci", "operateur": null, "shop": false, "adresse": null, "ville_id": 1, "created_at": "2025-03-26T21:20:08.579" }, "geometry": { "type": "Point", "coordinates": [ -4.0906622, 5.3307322 ] } },
{ "type": "Feature", "properties": { "id": 203, "nom": "Shell", "operateur": null, "shop": false, "adresse": null, "ville_id": 1, "created_at": "2025-03-26T21:20:08.579" }, "geometry": { "type": "Point", "coordinates": [ -4.0850866, 5.3352185 ] } },
{ "type": "Feature", "properties": { "id": 204, "nom": "Petroci", "operateur": null, "shop": false, "adresse": null, "ville_id": 1, "created_at": "2025-03-26T21:20:08.579" }, "geometry": { "type": "Point", "coordinates": [ -4.0851081, 5.3356191 ] } },
{ "type": "Feature", "properties": { "id": 205, "nom": "Petroci", "operateur": null, "shop": false, "adresse": null, "ville_id": 1, "created_at": "2025-03-26T21:20:08.579" }, "geometry": { "type": "Point", "coordinates": [ -4.067039, 5.3581096 ] } },
{ "type": "Feature", "properties": { "id": 206, "nom": "Shell", "operateur": null, "shop": false, "adresse": null, "ville_id": 1, "created_at": "2025-03-26T21:20:08.579" }, "geometry": { "type": "Point", "coordinates": [ -3.9779619, 5.2862466 ] } },
{ "type": "Feature", "properties": { "id": 207, "nom": "Station Service Oilibya Vridi", "operateur": "Libya Oil Côte d’Ivoire SA", "shop": false, "adresse": null, "ville_id": 1, "created_at": "2025-03-26T21:20:08.579" }, "geometry": { "type": "Point", "coordinates": [ -4.0004749, 5.2657734 ] } },
{ "type": "Feature", "properties": { "id": 208, "nom": "Total Energies Yop 1ᵉʳ pont", "operateur": null, "shop": false, "adresse": null, "ville_id": 1, "created_at": "2025-03-26T21:20:08.579" }, "geometry": { "type": "Point", "coordinates": [ -4.0663346, 5.3571955 ] } },
{ "type": "Feature", "properties": { "id": 209, "nom": "Pétro-Ivoire", "operateur": "Pétro Ivoire SA", "shop": false, "adresse": null, "ville_id": 1, "created_at": "2025-03-26T21:20:08.579" }, "geometry": { "type": "Point", "coordinates": [ -3.9470249, 5.3016992 ] } },
{ "type": "Feature", "properties": { "id": 210, "nom": "Pétro-Ivoire Terminus 32", "operateur": "Pétro Ivoire SA", "shop": false, "adresse": null, "ville_id": 1, "created_at": "2025-03-26T21:20:08.579" }, "geometry": { "type": "Point", "coordinates": [ -3.9507256, 5.3140492 ] } },
{ "type": "Feature", "properties": { "id": 211, "nom": "Oryx", "operateur": "OOCI", "shop": false, "adresse": null, "ville_id": 1, "created_at": "2025-03-26T21:20:08.579" }, "geometry": { "type": "Point", "coordinates": [ -4.0774679, 5.3742051 ] } },
{ "type": "Feature", "properties": { "id": 212, "nom": "Total Yop Palais de justice", "operateur": null, "shop": false, "adresse": null, "ville_id": 1, "created_at": "2025-03-26T21:20:08.579" }, "geometry": { "type": "Point", "coordinates": [ -4.0746788, 5.3300834 ] } },
{ "type": "Feature", "properties": { "id": 213, "nom": "Shell", "operateur": null, "shop": false, "adresse": null, "ville_id": 1, "created_at": "2025-03-26T21:20:08.579" }, "geometry": { "type": "Point", "coordinates": [ -4.0881739, 5.3554812 ] } },
{ "type": "Feature", "properties": { "id": 214, "nom": "Petro Ivoire", "operateur": null, "shop": false, "adresse": null, "ville_id": 1, "created_at": "2025-03-26T21:20:08.579" }, "geometry": { "type": "Point", "coordinates": [ -4.0301963, 5.4362579 ] } },
{ "type": "Feature", "properties": { "id": 215, "nom": "Shell", "operateur": null, "shop": false, "adresse": null, "ville_id": 1, "created_at": "2025-03-26T21:20:08.579" }, "geometry": { "type": "Point", "coordinates": [ -4.0332171, 5.4379733 ] } },
{ "type": "Feature", "properties": { "id": 216, "nom": "Shell", "operateur": null, "shop": false, "adresse": null, "ville_id": 1, "created_at": "2025-03-26T21:20:08.579" }, "geometry": { "type": "Point", "coordinates": [ -4.0330605, 5.4371738 ] } },
{ "type": "Feature", "properties": { "id": 217, "nom": "Oryx Energies", "operateur": null, "shop": false, "adresse": null, "ville_id": 1, "created_at": "2025-03-26T21:20:08.579" }, "geometry": { "type": "Point", "coordinates": [ -4.0348455, 5.4373127 ] } },
{ "type": "Feature", "properties": { "id": 218, "nom": "Corlay", "operateur": null, "shop": false, "adresse": null, "ville_id": 1, "created_at": "2025-03-26T21:20:08.579" }, "geometry": { "type": "Point", "coordinates": [ -4.0343945, 5.351279 ] } },
{ "type": "Feature", "properties": { "id": 219, "nom": "Station Service Shell Boulevard de Marseille", "operateur": "Vivo Energy Côte d'Ivoire SA", "shop": false, "adresse": null, "ville_id": 1, "created_at": "2025-03-26T21:20:08.579" }, "geometry": { "type": "Point", "coordinates": [ -4.0102158, 5.3543036 ] } },
{ "type": "Feature", "properties": { "id": 220, "nom": "Shell", "operateur": null, "shop": false, "adresse": null, "ville_id": 1, "created_at": "2025-03-26T21:20:08.579" }, "geometry": { "type": "Point", "coordinates": [ -4.2593272, 5.3242394 ] } },
{ "type": "Feature", "properties": { "id": 221, "nom": "Oryx", "operateur": null, "shop": false, "adresse": null, "ville_id": 1, "created_at": "2025-03-26T21:20:08.579" }, "geometry": { "type": "Point", "coordinates": [ -4.0188314, 5.4020147 ] } },
{ "type": "Feature", "properties": { "id": 222, "nom": "Oilibya", "operateur": null, "shop": false, "adresse": null, "ville_id": 1, "created_at": "2025-03-26T21:20:08.579" }, "geometry": { "type": "Point", "coordinates": [ -4.0528097, 5.4704267 ] } },
{ "type": "Feature", "properties": { "id": 223, "nom": "Ola", "operateur": null, "shop": false, "adresse": null, "ville_id": 1, "created_at": "2025-03-26T21:20:08.579" }, "geometry": { "type": "Point", "coordinates": [ -3.9984067, 5.3681251 ] } },
{ "type": "Feature", "properties": { "id": 224, "nom": "Petro Ivoire", "operateur": null, "shop": false, "adresse": null, "ville_id": 1, "created_at": "2025-03-26T21:20:08.579" }, "geometry": { "type": "Point", "coordinates": [ -4.0873878, 5.3662129 ] } },
{ "type": "Feature", "properties": { "id": 225, "nom": "Shell", "operateur": null, "shop": false, "adresse": null, "ville_id": 1, "created_at": "2025-03-26T21:20:08.579" }, "geometry": { "type": "Point", "coordinates": [ -4.0634353, 5.3529419 ] } },
{ "type": "Feature", "properties": { "id": 226, "nom": "Pétro Ivoire", "operateur": null, "shop": false, "adresse": null, "ville_id": 1, "created_at": "2025-03-26T21:20:08.579" }, "geometry": { "type": "Point", "coordinates": [ -3.8765897, 5.2369062 ] } },
{ "type": "Feature", "properties": { "id": 227, "nom": "Oilibya", "operateur": null, "shop": false, "adresse": null, "ville_id": 1, "created_at": "2025-03-26T21:20:08.579" }, "geometry": { "type": "Point", "coordinates": [ -4.0187332, 5.4035536 ] } },
{ "type": "Feature", "properties": { "id": 228, "nom": null, "operateur": null, "shop": false, "adresse": null, "ville_id": 1, "created_at": "2025-03-26T21:20:08.579" }, "geometry": { "type": "Point", "coordinates": [ -4.0168785, 5.4066538 ] } },
{ "type": "Feature", "properties": { "id": 229, "nom": "Total", "operateur": null, "shop": false, "adresse": null, "ville_id": 1, "created_at": "2025-03-26T21:20:08.579" }, "geometry": { "type": "Point", "coordinates": [ -4.0713009, 5.3609788 ] } },
{ "type": "Feature", "properties": { "id": 230, "nom": null, "operateur": null, "shop": false, "adresse": null, "ville_id": 1, "created_at": "2025-03-26T21:20:08.579" }, "geometry": { "type": "Point", "coordinates": [ -4.0695655, 5.3321569 ] } },
{ "type": "Feature", "properties": { "id": 231, "nom": "Shell", "operateur": null, "shop": false, "adresse": null, "ville_id": 1, "created_at": "2025-03-26T21:20:08.579" }, "geometry": { "type": "Point", "coordinates": [ -4.0461242, 5.3408812 ] } },
{ "type": "Feature", "properties": { "id": 232, "nom": "Station Service Total Nour-Al Hayat", "operateur": null, "shop": false, "adresse": null, "ville_id": 1, "created_at": "2025-03-26T21:20:08.579" }, "geometry": { "type": "Point", "coordinates": [ -4.0180591, 5.323175 ] } },
{ "type": "Feature", "properties": { "id": 233, "nom": "Total", "operateur": null, "shop": false, "adresse": null, "ville_id": 1, "created_at": "2025-03-26T21:20:08.579" }, "geometry": { "type": "Point", "coordinates": [ -4.0451682, 5.3219431 ] } },
{ "type": "Feature", "properties": { "id": 234, "nom": "Shell", "operateur": null, "shop": false, "adresse": null, "ville_id": 1, "created_at": "2025-03-26T21:20:08.579" }, "geometry": { "type": "Point", "coordinates": [ -4.0439223, 5.3206505 ] } },
{ "type": "Feature", "properties": { "id": 235, "nom": "Total Yop Sideci", "operateur": null, "shop": false, "adresse": null, "ville_id": 1, "created_at": "2025-03-26T21:20:08.579" }, "geometry": { "type": "Point", "coordinates": [ -4.0772932, 5.3262375 ] } },
{ "type": "Feature", "properties": { "id": 236, "nom": "Shell", "operateur": null, "shop": false, "adresse": null, "ville_id": 1, "created_at": "2025-03-26T21:20:08.579" }, "geometry": { "type": "Point", "coordinates": [ -3.9641977, 5.3586193 ] } },
{ "type": "Feature", "properties": { "id": 237, "nom": "Station service Corlay", "operateur": null, "shop": false, "adresse": null, "ville_id": 1, "created_at": "2025-03-26T21:20:08.579" }, "geometry": { "type": "Point", "coordinates": [ -4.0179948, 5.35436 ] } },
{ "type": "Feature", "properties": { "id": 238, "nom": "Oilibya", "operateur": null, "shop": false, "adresse": null, "ville_id": 1, "created_at": "2025-03-26T21:20:08.579" }, "geometry": { "type": "Point", "coordinates": [ -4.0555508, 5.4435786 ] } },
{ "type": "Feature", "properties": { "id": 239, "nom": "Star Oil", "operateur": null, "shop": false, "adresse": null, "ville_id": 1, "created_at": "2025-03-26T21:20:08.579" }, "geometry": { "type": "Point", "coordinates": [ -4.0671311, 5.4432609 ] } },
{ "type": "Feature", "properties": { "id": 240, "nom": "Afriquia", "operateur": null, "shop": false, "adresse": null, "ville_id": 1, "created_at": "2025-03-26T21:20:08.579" }, "geometry": { "type": "Point", "coordinates": [ -3.9141597, 5.374638 ] } },
{ "type": "Feature", "properties": { "id": 241, "nom": "Pétro Ivoire", "operateur": null, "shop": false, "adresse": null, "ville_id": 1, "created_at": "2025-03-26T21:20:08.579" }, "geometry": { "type": "Point", "coordinates": [ -4.0875111, 5.3241988 ] } },
{ "type": "Feature", "properties": { "id": 242, "nom": "Delta-Oil", "operateur": null, "shop": false, "adresse": null, "ville_id": 1, "created_at": "2025-03-26T21:20:08.579" }, "geometry": { "type": "Point", "coordinates": [ -4.0967548, 5.3188827 ] } },
{ "type": "Feature", "properties": { "id": 243, "nom": "Station Fluel Save", "operateur": "SHELL", "shop": false, "adresse": null, "ville_id": 1, "created_at": "2025-03-26T21:20:08.579" }, "geometry": { "type": "Point", "coordinates": [ -4.0619078, 5.3409939 ] } },
{ "type": "Feature", "properties": { "id": 244, "nom": "Station Powex", "operateur": null, "shop": false, "adresse": null, "ville_id": 1, "created_at": "2025-03-26T21:20:08.579" }, "geometry": { "type": "Point", "coordinates": [ -4.0585135, 5.3407295 ] } },
{ "type": "Feature", "properties": { "id": 245, "nom": null, "operateur": null, "shop": false, "adresse": null, "ville_id": 1, "created_at": "2025-03-26T21:20:08.579" }, "geometry": { "type": "Point", "coordinates": [ -4.0832374, 5.3497018 ] } },
{ "type": "Feature", "properties": { "id": 246, "nom": null, "operateur": null, "shop": false, "adresse": null, "ville_id": 1, "created_at": "2025-03-26T21:20:08.579" }, "geometry": { "type": "Point", "coordinates": [ -4.0011679, 5.3633614 ] } },
{ "type": "Feature", "properties": { "id": 247, "nom": "Shell", "operateur": null, "shop": false, "adresse": null, "ville_id": 1, "created_at": "2025-03-26T21:20:08.579" }, "geometry": { "type": "Point", "coordinates": [ -4.0829115, 5.3476903 ] } },
{ "type": "Feature", "properties": { "id": 248, "nom": "Ola Energy", "operateur": null, "shop": false, "adresse": null, "ville_id": 1, "created_at": "2025-03-26T21:20:08.579" }, "geometry": { "type": "Point", "coordinates": [ -4.0808265, 5.3628728 ] } },
{ "type": "Feature", "properties": { "id": 249, "nom": null, "operateur": null, "shop": false, "adresse": null, "ville_id": 1, "created_at": "2025-03-26T21:20:08.579" }, "geometry": { "type": "Point", "coordinates": [ -4.0529908, 5.3327044 ] } },
{ "type": "Feature", "properties": { "id": 250, "nom": null, "operateur": null, "shop": false, "adresse": null, "ville_id": 1, "created_at": "2025-03-26T21:20:08.579" }, "geometry": { "type": "Point", "coordinates": [ -4.0953731, 5.343806 ] } },
{ "type": "Feature", "properties": { "id": 251, "nom": "Dépot de Gaz", "operateur": null, "shop": false, "adresse": null, "ville_id": 1, "created_at": "2025-03-26T21:20:08.579" }, "geometry": { "type": "Point", "coordinates": [ -4.0958458, 5.3531275 ] } },
{ "type": "Feature", "properties": { "id": 252, "nom": "Dépot de Gaz", "operateur": null, "shop": false, "adresse": null, "ville_id": 1, "created_at": "2025-03-26T21:20:08.579" }, "geometry": { "type": "Point", "coordinates": [ -4.0990226, 5.3505093 ] } },
{ "type": "Feature", "properties": { "id": 253, "nom": null, "operateur": null, "shop": false, "adresse": null, "ville_id": 1, "created_at": "2025-03-26T21:20:08.579" }, "geometry": { "type": "Point", "coordinates": [ -3.9542815, 5.2955058 ] } },
{ "type": "Feature", "properties": { "id": 254, "nom": "Station Delta Oil", "operateur": null, "shop": false, "adresse": null, "ville_id": 1, "created_at": "2025-03-26T21:20:08.579" }, "geometry": { "type": "Point", "coordinates": [ -3.9635204, 5.3019263 ] } },
{ "type": "Feature", "properties": { "id": 255, "nom": "Total", "operateur": null, "shop": false, "adresse": null, "ville_id": 1, "created_at": "2025-03-26T21:20:08.579" }, "geometry": { "type": "Point", "coordinates": [ -4.0683371, 5.439214 ] } },
{ "type": "Feature", "properties": { "id": 256, "nom": null, "operateur": null, "shop": false, "adresse": null, "ville_id": 1, "created_at": "2025-03-26T21:20:08.579" }, "geometry": { "type": "Point", "coordinates": [ -4.0705459, 5.4482476 ] } },
{ "type": "Feature", "properties": { "id": 257, "nom": null, "operateur": null, "shop": false, "adresse": null, "ville_id": 1, "created_at": "2025-03-26T21:20:08.579" }, "geometry": { "type": "Point", "coordinates": [ -4.046052, 5.4404776 ] } },
{ "type": "Feature", "properties": { "id": 258, "nom": null, "operateur": null, "shop": false, "adresse": null, "ville_id": 1, "created_at": "2025-03-26T21:20:08.579" }, "geometry": { "type": "Point", "coordinates": [ -4.0545673, 5.4522808 ] } },
{ "type": "Feature", "properties": { "id": 259, "nom": null, "operateur": null, "shop": false, "adresse": null, "ville_id": 1, "created_at": "2025-03-26T21:20:08.579" }, "geometry": { "type": "Point", "coordinates": [ -4.029842, 5.4361093 ] } },
{ "type": "Feature", "properties": { "id": 260, "nom": null, "operateur": null, "shop": false, "adresse": null, "ville_id": 1, "created_at": "2025-03-26T21:20:08.579" }, "geometry": { "type": "Point", "coordinates": [ -4.0540315, 5.4575608 ] } },
{ "type": "Feature", "properties": { "id": 261, "nom": "Station Oryx", "operateur": null, "shop": false, "adresse": null, "ville_id": 1, "created_at": "2025-03-26T21:20:08.579" }, "geometry": { "type": "Point", "coordinates": [ -4.0347035, 5.437447 ] } },
{ "type": "Feature", "properties": { "id": 262, "nom": "StationShell", "operateur": null, "shop": false, "adresse": null, "ville_id": 1, "created_at": "2025-03-26T21:20:08.579" }, "geometry": { "type": "Point", "coordinates": [ -4.0332913, 5.4370945 ] } },
{ "type": "Feature", "properties": { "id": 263, "nom": "Shell", "operateur": null, "shop": false, "adresse": null, "ville_id": 1, "created_at": "2025-03-26T21:20:08.579" }, "geometry": { "type": "Point", "coordinates": [ -4.0209573, 5.3985859 ] } },
{ "type": "Feature", "properties": { "id": 264, "nom": "Station Service Shell Boulevard du 4 Novembre", "operateur": "Vivo Energy Côte d'Ivoire SA", "shop": false, "adresse": null, "ville_id": 1, "created_at": "2025-03-26T21:20:08.579" }, "geometry": { "type": "Point", "coordinates": [ -4.0109928, 5.3476128 ] } },
{ "type": "Feature", "properties": { "id": 265, "nom": "Total", "operateur": null, "shop": false, "adresse": null, "ville_id": 1, "created_at": "2025-03-26T21:20:08.579" }, "geometry": { "type": "Point", "coordinates": [ -4.0522125, 5.4499837 ] } },
{ "type": "Feature", "properties": { "id": 266, "nom": "Oil lybia", "operateur": null, "shop": false, "adresse": null, "ville_id": 1, "created_at": "2025-03-26T21:20:08.579" }, "geometry": { "type": "Point", "coordinates": [ -4.0183471, 5.4042031 ] } },
{ "type": "Feature", "properties": { "id": 267, "nom": "Petro Ivoire", "operateur": null, "shop": false, "adresse": null, "ville_id": 1, "created_at": "2025-03-26T21:20:08.579" }, "geometry": { "type": "Point", "coordinates": [ -4.0515236, 5.4941817 ] } },
{ "type": "Feature", "properties": { "id": 268, "nom": "Total", "operateur": null, "shop": false, "adresse": null, "ville_id": 1, "created_at": "2025-03-26T21:20:08.579" }, "geometry": { "type": "Point", "coordinates": [ -4.0260293, 5.3390488 ] } },
{ "type": "Feature", "properties": { "id": 269, "nom": "Oilibya", "operateur": null, "shop": false, "adresse": null, "ville_id": 1, "created_at": "2025-03-26T21:20:08.579" }, "geometry": { "type": "Point", "coordinates": [ -4.0450384, 5.3468058 ] } },
{ "type": "Feature", "properties": { "id": 270, "nom": "First Petroleum", "operateur": null, "shop": false, "adresse": null, "ville_id": 1, "created_at": "2025-03-26T21:20:08.579" }, "geometry": { "type": "Point", "coordinates": [ -3.9103704, 5.3696772 ] } },
{ "type": "Feature", "properties": { "id": 271, "nom": "Ivoire Win Biafra", "operateur": null, "shop": false, "adresse": null, "ville_id": 1, "created_at": "2025-03-26T21:20:08.579" }, "geometry": { "type": "Point", "coordinates": [ -4.0011839, 5.3094623 ] } },
{ "type": "Feature", "properties": { "id": 272, "nom": "Afriqoil", "operateur": null, "shop": false, "adresse": null, "ville_id": 1, "created_at": "2025-03-26T21:20:08.579" }, "geometry": { "type": "Point", "coordinates": [ -4.0701668, 5.4282613 ] } },
{ "type": "Feature", "properties": { "id": 273, "nom": "Petro Ivoire", "operateur": null, "shop": false, "adresse": null, "ville_id": 1, "created_at": "2025-03-26T21:20:08.579" }, "geometry": { "type": "Point", "coordinates": [ -3.9256806, 5.3733176 ] } },
{ "type": "Feature", "properties": { "id": 274, "nom": "Oilibya", "operateur": null, "shop": false, "adresse": null, "ville_id": 1, "created_at": "2025-03-26T21:20:08.579" }, "geometry": { "type": "Point", "coordinates": [ -4.0238438, 5.3269154 ] } },
{ "type": "Feature", "properties": { "id": 275, "nom": "Shell", "operateur": null, "shop": false, "adresse": null, "ville_id": 1, "created_at": "2025-03-26T21:20:08.579" }, "geometry": { "type": "Point", "coordinates": [ -4.0907672, 5.3561461 ] } },
{ "type": "Feature", "properties": { "id": 276, "nom": "Total", "operateur": null, "shop": false, "adresse": null, "ville_id": 1, "created_at": "2025-03-26T21:20:08.579" }, "geometry": { "type": "Point", "coordinates": [ -4.0297324, 5.3623682 ] } },
{ "type": "Feature", "properties": { "id": 277, "nom": "Total", "operateur": null, "shop": false, "adresse": null, "ville_id": 1, "created_at": "2025-03-26T21:20:08.579" }, "geometry": { "type": "Point", "coordinates": [ -4.0296143, 5.3625038 ] } },
{ "type": "Feature", "properties": { "id": 278, "nom": "Ivoire Win", "operateur": null, "shop": false, "adresse": null, "ville_id": 1, "created_at": "2025-03-26T21:20:08.579" }, "geometry": { "type": "Point", "coordinates": [ -4.1448797, 5.3977813 ] } },
{ "type": "Feature", "properties": { "id": 279, "nom": "TOTAL", "operateur": null, "shop": false, "adresse": null, "ville_id": 1, "created_at": "2025-03-26T21:20:08.579" }, "geometry": { "type": "Point", "coordinates": [ -4.0205341, 5.3964977 ] } },
{ "type": "Feature", "properties": { "id": 280, "nom": "Petroci", "operateur": null, "shop": false, "adresse": null, "ville_id": 1, "created_at": "2025-03-26T21:20:08.579" }, "geometry": { "type": "Point", "coordinates": [ -4.0874385, 5.3237882 ] } },
{ "type": "Feature", "properties": { "id": 281, "nom": "Star Oil", "operateur": null, "shop": false, "adresse": null, "ville_id": 1, "created_at": "2025-03-26T21:20:08.579" }, "geometry": { "type": "Point", "coordinates": [ -3.986908, 5.4086598 ] } },
{ "type": "Feature", "properties": { "id": 282, "nom": "Afriqoil", "operateur": null, "shop": false, "adresse": null, "ville_id": 1, "created_at": "2025-03-26T21:20:08.579" }, "geometry": { "type": "Point", "coordinates": [ -4.0608759, 5.3288613 ] } },
{ "type": "Feature", "properties": { "id": 283, "nom": "Station Total", "operateur": null, "shop": false, "adresse": null, "ville_id": 1, "created_at": "2025-03-26T21:20:08.579" }, "geometry": { "type": "Point", "coordinates": [ -4.0180413, 5.4383195 ] } },
{ "type": "Feature", "properties": { "id": 284, "nom": "Station Ivoirelub", "operateur": null, "shop": false, "adresse": null, "ville_id": 1, "created_at": "2025-03-26T21:20:08.579" }, "geometry": { "type": "Point", "coordinates": [ -4.0133942, 5.4500696 ] } },
{ "type": "Feature", "properties": { "id": 285, "nom": "Station Petroleum", "operateur": null, "shop": false, "adresse": null, "ville_id": 1, "created_at": "2025-03-26T21:20:08.579" }, "geometry": { "type": "Point", "coordinates": [ -3.9776404, 5.3975164 ] } },
{ "type": "Feature", "properties": { "id": 286, "nom": "Station Service Pride Petroleum Riviera-Palmeraie", "operateur": "Pride Petroleum SA", "shop": false, "adresse": "Riviéra Palmeraie;Cocody;Abidjan;Côte d'Ivoire", "ville_id": 1, "created_at": "2025-03-26T21:20:08.579" }, "geometry": { "type": "Point", "coordinates": [ -3.9593153, 5.3630023 ] } },
{ "type": "Feature", "properties": { "id": 287, "nom": "Petro Ivoire", "operateur": null, "shop": false, "adresse": null, "ville_id": 1, "created_at": "2025-03-26T21:20:08.579" }, "geometry": { "type": "Point", "coordinates": [ -3.9551389, 5.3918629 ] } },
{ "type": "Feature", "properties": { "id": 288, "nom": "Total", "operateur": null, "shop": false, "adresse": null, "ville_id": 1, "created_at": "2025-03-26T21:20:08.579" }, "geometry": { "type": "Point", "coordinates": [ -3.9551711, 5.3892041 ] } },
{ "type": "Feature", "properties": { "id": 289, "nom": "OLA ENERGY", "operateur": null, "shop": false, "adresse": null, "ville_id": 1, "created_at": "2025-03-26T21:20:08.579" }, "geometry": { "type": "Point", "coordinates": [ -3.9443325, 5.3677384 ] } },
{ "type": "Feature", "properties": { "id": 290, "nom": "Station En Construction", "operateur": null, "shop": false, "adresse": null, "ville_id": 1, "created_at": "2025-03-26T21:20:08.579" }, "geometry": { "type": "Point", "coordinates": [ -4.0010318, 5.4156858 ] } },
{ "type": "Feature", "properties": { "id": 291, "nom": "Station Total", "operateur": null, "shop": false, "adresse": null, "ville_id": 1, "created_at": "2025-03-26T21:20:08.579" }, "geometry": { "type": "Point", "coordinates": [ -3.9781715, 5.3998866 ] } },
{ "type": "Feature", "properties": { "id": 292, "nom": "Station Star Oil", "operateur": null, "shop": false, "adresse": null, "ville_id": 1, "created_at": "2025-03-26T21:20:08.579" }, "geometry": { "type": "Point", "coordinates": [ -4.0200629, 5.432269 ] } },
{ "type": "Feature", "properties": { "id": 293, "nom": "Afriquia", "operateur": null, "shop": false, "adresse": null, "ville_id": 1, "created_at": "2025-03-26T21:20:08.579" }, "geometry": { "type": "Point", "coordinates": [ -3.9623862, 5.2971023 ] } },
{ "type": "Feature", "properties": { "id": 294, "nom": "Shell", "operateur": null, "shop": false, "adresse": null, "ville_id": 1, "created_at": "2025-03-26T21:20:08.579" }, "geometry": { "type": "Point", "coordinates": [ -4.0882814, 5.3123449 ] } },
{ "type": "Feature", "properties": { "id": 295, "nom": "Petro Ivoire", "operateur": null, "shop": false, "adresse": null, "ville_id": 1, "created_at": "2025-03-26T21:20:08.579" }, "geometry": { "type": "Point", "coordinates": [ -3.9875443, 5.4041988 ] } },
{ "type": "Feature", "properties": { "id": 296, "nom": "Station star oil", "operateur": null, "shop": false, "adresse": null, "ville_id": 1, "created_at": "2025-03-26T21:20:08.579" }, "geometry": { "type": "Point", "coordinates": [ -3.9888268, 5.4334768 ] } },
{ "type": "Feature", "properties": { "id": 297, "nom": null, "operateur": null, "shop": false, "adresse": null, "ville_id": 1, "created_at": "2025-03-26T21:20:08.579" }, "geometry": { "type": "Point", "coordinates": [ -3.9605324, 5.3655132 ] } },
{ "type": "Feature", "properties": { "id": 298, "nom": "Total", "operateur": null, "shop": false, "adresse": null, "ville_id": 1, "created_at": "2025-03-26T21:20:08.579" }, "geometry": { "type": "Point", "coordinates": [ -3.8753981, 5.2363218 ] } },
{ "type": "Feature", "properties": { "id": 299, "nom": "Station Shell", "operateur": null, "shop": false, "adresse": null, "ville_id": 1, "created_at": "2025-03-26T21:20:08.579" }, "geometry": { "type": "Point", "coordinates": [ -4.0058653, 5.4116969 ] } },
{ "type": "Feature", "properties": { "id": 300, "nom": "Ivoire Win", "operateur": null, "shop": false, "adresse": null, "ville_id": 1, "created_at": "2025-03-26T21:20:08.579" }, "geometry": { "type": "Point", "coordinates": [ -3.9868649, 5.3542458 ] } },
{ "type": "Feature", "properties": { "id": 301, "nom": null, "operateur": null, "shop": false, "adresse": null, "ville_id": 1, "created_at": "2025-03-26T21:20:08.579" }, "geometry": { "type": "Point", "coordinates": [ -3.9753749, 5.2729524 ] } },
{ "type": "Feature", "properties": { "id": 302, "nom": "Shell", "operateur": null, "shop": false, "adresse": null, "ville_id": 1, "created_at": "2025-03-26T21:20:08.579" }, "geometry": { "type": "Point", "coordinates": [ -4.0331885, 5.4376235 ] } },
{ "type": "Feature", "properties": { "id": 303, "nom": "Shell", "operateur": null, "shop": false, "adresse": null, "ville_id": 1, "created_at": "2025-03-26T21:20:08.579" }, "geometry": { "type": "Point", "coordinates": [ -4.051575, 5.4954344 ] } },
{ "type": "Feature", "properties": { "id": 304, "nom": "Station Ola", "operateur": "OLA", "shop": false, "adresse": null, "ville_id": 1, "created_at": "2025-03-26T21:20:08.579" }, "geometry": { "type": "Point", "coordinates": [ -4.0515111, 5.4957317 ] } },
{ "type": "Feature", "properties": { "id": 305, "nom": "Total", "operateur": "Total", "shop": false, "adresse": null, "ville_id": 1, "created_at": "2025-03-26T21:20:08.579" }, "geometry": { "type": "Point", "coordinates": [ -4.051818, 5.4939889 ] } },
{ "type": "Feature", "properties": { "id": 306, "nom": "Star Oil", "operateur": null, "shop": false, "adresse": null, "ville_id": 1, "created_at": "2025-03-26T21:20:08.579" }, "geometry": { "type": "Point", "coordinates": [ -4.0602127, 5.5128253 ] } },
{ "type": "Feature", "properties": { "id": 307, "nom": "Petro Ivoire", "operateur": null, "shop": false, "adresse": null, "ville_id": 1, "created_at": "2025-03-26T21:20:08.579" }, "geometry": { "type": "Point", "coordinates": [ -4.0249667, 5.3792686 ] } },
{ "type": "Feature", "properties": { "id": 308, "nom": "Total", "operateur": null, "shop": false, "adresse": null, "ville_id": 1, "created_at": "2025-03-26T21:20:08.579" }, "geometry": { "type": "Point", "coordinates": [ -4.0279909, 5.374061 ] } },
{ "type": "Feature", "properties": { "id": 309, "nom": "Shell", "operateur": "Shell", "shop": false, "adresse": null, "ville_id": 1, "created_at": "2025-03-26T21:20:08.579" }, "geometry": { "type": "Point", "coordinates": [ -4.0381269, 5.3609191 ] } },
{ "type": "Feature", "properties": { "id": 310, "nom": "Petro Ivoire", "operateur": null, "shop": false, "adresse": null, "ville_id": 1, "created_at": "2025-03-26T21:20:08.579" }, "geometry": { "type": "Point", "coordinates": [ -3.9661872, 5.3992338 ] } },
{ "type": "Feature", "properties": { "id": 311, "nom": "Ivoire Win", "operateur": null, "shop": false, "adresse": null, "ville_id": 1, "created_at": "2025-03-26T21:20:08.579" }, "geometry": { "type": "Point", "coordinates": [ -4.1779653, 5.4482156 ] } },
{ "type": "Feature", "properties": { "id": 312, "nom": "Sara Petroleum", "operateur": null, "shop": false, "adresse": null, "ville_id": 1, "created_at": "2025-03-26T21:20:08.579" }, "geometry": { "type": "Point", "coordinates": [ -4.1430623, 5.3968968 ] } },
{ "type": "Feature", "properties": { "id": 313, "nom": "Oryx", "operateur": null, "shop": false, "adresse": null, "ville_id": 1, "created_at": "2025-03-26T21:20:08.579" }, "geometry": { "type": "Point", "coordinates": [ -3.932764, 5.3723801 ] } },
{ "type": "Feature", "properties": { "id": 314, "nom": "Ola", "operateur": null, "shop": false, "adresse": null, "ville_id": 1, "created_at": "2025-03-26T21:20:08.579" }, "geometry": { "type": "Point", "coordinates": [ -4.0600361, 5.3589321 ] } },
{ "type": "Feature", "properties": { "id": 315, "nom": "Ola", "operateur": null, "shop": false, "adresse": null, "ville_id": 1, "created_at": "2025-03-26T21:20:08.579" }, "geometry": { "type": "Point", "coordinates": [ -4.076885, 5.3602952 ] } },
{ "type": "Feature", "properties": { "id": 316, "nom": "Afriqoil", "operateur": null, "shop": false, "adresse": null, "ville_id": 1, "created_at": "2025-03-26T21:20:08.579" }, "geometry": { "type": "Point", "coordinates": [ -4.0847323, 5.3777577 ] } },
{ "type": "Feature", "properties": { "id": 317, "nom": "Petroci", "operateur": null, "shop": false, "adresse": null, "ville_id": 1, "created_at": "2025-03-26T21:20:08.579" }, "geometry": { "type": "Point", "coordinates": [ -4.0933822, 5.354997 ] } },
{ "type": "Feature", "properties": { "id": 318, "nom": "Pétro Ivoire", "operateur": null, "shop": false, "adresse": null, "ville_id": 1, "created_at": "2025-03-26T21:20:08.579" }, "geometry": { "type": "Point", "coordinates": [ -3.9509246, 5.3290759 ] } },
{ "type": "Feature", "properties": { "id": 319, "nom": "SIP", "operateur": "Société Ivoirienne de Pétrole", "shop": false, "adresse": null, "ville_id": 1, "created_at": "2025-03-26T21:20:08.579" }, "geometry": { "type": "Point", "coordinates": [ -4.0043345, 5.2785236 ] } },
{ "type": "Feature", "properties": { "id": 320, "nom": "Total", "operateur": null, "shop": false, "adresse": null, "ville_id": 1, "created_at": "2025-03-26T21:20:08.579" }, "geometry": { "type": "Point", "coordinates": [ -3.9631523, 5.3424935 ] } },
{ "type": "Feature", "properties": { "id": 321, "nom": "Shell", "operateur": null, "shop": false, "adresse": null, "ville_id": 1, "created_at": "2025-03-26T21:20:08.579" }, "geometry": { "type": "Point", "coordinates": [ -3.9873472, 5.3847732 ] } },
{ "type": "Feature", "properties": { "id": 322, "nom": "Afriquia", "operateur": null, "shop": false, "adresse": null, "ville_id": 1, "created_at": "2025-03-26T21:20:08.579" }, "geometry": { "type": "Point", "coordinates": [ -3.8605268, 5.2312673 ] } },
{ "type": "Feature", "properties": { "id": 323, "nom": "Petro Ivoire", "operateur": null, "shop": false, "adresse": null, "ville_id": 1, "created_at": "2025-03-26T21:20:08.579" }, "geometry": { "type": "Point", "coordinates": [ -3.9403387, 5.397316 ] } }
]
}
